{
    "AC":[
       {
          "nome":"Mâncio Lima",
          "UF":"AC",
          "latitude":-7.61657,
          "longitude":-72.8997
       },
       {
          "nome":"Marechal Thaumaturgo",
          "UF":"AC",
          "latitude":-8.93898,
          "longitude":-72.7997
       },
       {
          "nome":"Feijó",
          "UF":"AC",
          "latitude":-8.17054,
          "longitude":-70.351
       },
       {
          "nome":"Tarauacá",
          "UF":"AC",
          "latitude":-8.15697,
          "longitude":-70.7722
       },
       {
          "nome":"Capixaba",
          "UF":"AC",
          "latitude":-10.566,
          "longitude":-67.686
       },
       {
          "nome":"Santa Rosa do Purus",
          "UF":"AC",
          "latitude":-9.44652,
          "longitude":-70.4902
       },
       {
          "nome":"Rodrigues Alves",
          "UF":"AC",
          "latitude":-7.73864,
          "longitude":-72.661
       },
       {
          "nome":"Porto Walter",
          "UF":"AC",
          "latitude":-8.26323,
          "longitude":-72.7537
       },
       {
          "nome":"Epitaciolândia",
          "UF":"AC",
          "latitude":-11.0188,
          "longitude":-68.7341
       },
       {
          "nome":"Sena Madureira",
          "UF":"AC",
          "latitude":-9.06596,
          "longitude":-68.6571
       },
       {
          "nome":"Senador Guiomard",
          "UF":"AC",
          "latitude":-10.1497,
          "longitude":-67.7362
       },
       {
          "nome":"Plácido de Castro",
          "UF":"AC",
          "latitude":-10.2806,
          "longitude":-67.1371
       },
       {
          "nome":"Rio Branco",
          "UF":"AC",
          "latitude":-9.97499,
          "longitude":-67.8243
       },
       {
          "nome":"Porto Acre",
          "UF":"AC",
          "latitude":-9.58138,
          "longitude":-67.5478
       },
       {
          "nome":"Xapuri",
          "UF":"AC",
          "latitude":-10.6516,
          "longitude":-68.4969
       },
       {
          "nome":"Manoel Urbano",
          "UF":"AC",
          "latitude":-8.83291,
          "longitude":-69.2679
       },
       {
          "nome":"Cruzeiro do Sul",
          "UF":"AC",
          "latitude":-7.62762,
          "longitude":-72.6756
       },
       {
          "nome":"Assis Brasil",
          "UF":"AC",
          "latitude":-10.9298,
          "longitude":-69.5738
       },
       {
          "nome":"Brasiléia",
          "UF":"AC",
          "latitude":-10.995,
          "longitude":-68.7497
       },
       {
          "nome":"Bujari",
          "UF":"AC",
          "latitude":-9.81528,
          "longitude":-67.955
       },
       {
          "nome":"Jordão",
          "UF":"AC",
          "latitude":-9.43091,
          "longitude":-71.8974
       },
       {
          "nome":"Acrelândia",
          "UF":"AC",
          "latitude":-9.82581,
          "longitude":-66.8972
       }
    ],
    "AL":[
       {
          "nome":"São José da Tapera",
          "UF":"AL",
          "latitude":-9.55768,
          "longitude":-37.3831
       },
       {
          "nome":"Maribondo",
          "UF":"AL",
          "latitude":-9.58353,
          "longitude":-36.3045
       },
       {
          "nome":"Poço das Trincheiras",
          "UF":"AL",
          "latitude":-9.30742,
          "longitude":-37.2889
       },
       {
          "nome":"São José da Laje",
          "UF":"AL",
          "latitude":-9.01278,
          "longitude":-36.0515
       },
       {
          "nome":"Batalha",
          "UF":"AL",
          "latitude":-9.6742,
          "longitude":-37.133
       },
       {
          "nome":"Santana do Ipanema",
          "UF":"AL",
          "latitude":-9.36999,
          "longitude":-37.248
       },
       {
          "nome":"Belém",
          "UF":"AL",
          "latitude":-9.57047,
          "longitude":-36.4904
       },
       {
          "nome":"Mata Grande",
          "UF":"AL",
          "latitude":-9.11824,
          "longitude":-37.7323
       },
       {
          "nome":"Marechal Deodoro",
          "UF":"AL",
          "latitude":-9.70971,
          "longitude":-35.8967
       },
       {
          "nome":"Belo Monte",
          "UF":"AL",
          "latitude":-9.82272,
          "longitude":-37.277
       },
       {
          "nome":"Messias",
          "UF":"AL",
          "latitude":-9.39384,
          "longitude":-35.8392
       },
       {
          "nome":"Minador do Negrão",
          "UF":"AL",
          "latitude":-9.31236,
          "longitude":-36.8696
       },
       {
          "nome":"Igreja Nova",
          "UF":"AL",
          "latitude":-10.1235,
          "longitude":-36.6597
       },
       {
          "nome":"Barra de Santo Antônio",
          "UF":"AL",
          "latitude":-9.4023,
          "longitude":-35.5101
       },
       {
          "nome":"Boca da Mata",
          "UF":"AL",
          "latitude":-9.64308,
          "longitude":-36.2125
       },
       {
          "nome":"Maragogi",
          "UF":"AL",
          "latitude":-9.00744,
          "longitude":-35.2267
       },
       {
          "nome":"Piranhas",
          "UF":"AL",
          "latitude":-9.624,
          "longitude":-37.757
       },
       {
          "nome":"União dos Palmares",
          "UF":"AL",
          "latitude":-9.15921,
          "longitude":-36.0223
       },
       {
          "nome":"Inhapi",
          "UF":"AL",
          "latitude":-9.22594,
          "longitude":-37.7509
       },
       {
          "nome":"Mar Vermelho",
          "UF":"AL",
          "latitude":-9.44739,
          "longitude":-36.3881
       },
       {
          "nome":"Quebrangulo",
          "UF":"AL",
          "latitude":-9.32001,
          "longitude":-36.4692
       },
       {
          "nome":"Santana do Mundaú",
          "UF":"AL",
          "latitude":-9.17141,
          "longitude":-36.2176
       },
       {
          "nome":"Maravilha",
          "UF":"AL",
          "latitude":-9.23045,
          "longitude":-37.3524
       },
       {
          "nome":"Barra de São Miguel",
          "UF":"AL",
          "latitude":-9.83842,
          "longitude":-35.9057
       },
       {
          "nome":"Teotônio Vilela",
          "UF":"AL",
          "latitude":-9.91656,
          "longitude":-36.3492
       },
       {
          "nome":"Pilar",
          "UF":"AL",
          "latitude":-9.60135,
          "longitude":-35.9543
       },
       {
          "nome":"Cajueiro",
          "UF":"AL",
          "latitude":-9.3994,
          "longitude":-36.1559
       },
       {
          "nome":"Penedo",
          "UF":"AL",
          "latitude":-10.2874,
          "longitude":-36.5819
       },
       {
          "nome":"Água Branca",
          "UF":"AL",
          "latitude":-9.262,
          "longitude":-37.938
       },
       {
          "nome":"Piaçabuçu",
          "UF":"AL",
          "latitude":-10.406,
          "longitude":-36.434
       },
       {
          "nome":"Rio Largo",
          "UF":"AL",
          "latitude":-9.47783,
          "longitude":-35.8394
       },
       {
          "nome":"Anadia",
          "UF":"AL",
          "latitude":-9.68489,
          "longitude":-36.3078
       },
       {
          "nome":"Campestre",
          "UF":"AL",
          "latitude":-8.84723,
          "longitude":-35.5685
       },
       {
          "nome":"Igaci",
          "UF":"AL",
          "latitude":-9.53768,
          "longitude":-36.6372
       },
       {
          "nome":"Maceió",
          "UF":"AL",
          "latitude":-9.66599,
          "longitude":-35.735
       },
       {
          "nome":"Canapi",
          "UF":"AL",
          "latitude":-9.11932,
          "longitude":-37.5967
       },
       {
          "nome":"Major Isidoro",
          "UF":"AL",
          "latitude":-9.53009,
          "longitude":-36.992
       },
       {
          "nome":"Campo Alegre",
          "UF":"AL",
          "latitude":-9.78451,
          "longitude":-36.3525
       },
       {
          "nome":"Traipu",
          "UF":"AL",
          "latitude":-9.96262,
          "longitude":-37.0071
       },
       {
          "nome":"Pindoba",
          "UF":"AL",
          "latitude":-9.47382,
          "longitude":-36.2918
       },
       {
          "nome":"Ibateguara",
          "UF":"AL",
          "latitude":-8.97823,
          "longitude":-35.9373
       },
       {
          "nome":"São Luís do Quitunde",
          "UF":"AL",
          "latitude":-9.31816,
          "longitude":-35.5606
       },
       {
          "nome":"Santa Luzia do Norte",
          "UF":"AL",
          "latitude":-9.6037,
          "longitude":-35.8232
       },
       {
          "nome":"Limoeiro de Anadia",
          "UF":"AL",
          "latitude":-9.74098,
          "longitude":-36.5121
       },
       {
          "nome":"Capela",
          "UF":"AL",
          "latitude":-9.41504,
          "longitude":-36.0826
       },
       {
          "nome":"São Brás",
          "UF":"AL",
          "latitude":-10.1141,
          "longitude":-36.8522
       },
       {
          "nome":"Olho d'Água Grande",
          "UF":"AL",
          "latitude":-10.0572,
          "longitude":-36.8101
       },
       {
          "nome":"Cacimbinhas",
          "UF":"AL",
          "latitude":-9.40121,
          "longitude":-36.9911
       },
       {
          "nome":"Campo Grande",
          "UF":"AL",
          "latitude":-9.95542,
          "longitude":-36.7926
       },
       {
          "nome":"Viçosa",
          "UF":"AL",
          "latitude":-9.36763,
          "longitude":-36.2431
       },
       {
          "nome":"Branquinha",
          "UF":"AL",
          "latitude":-9.23342,
          "longitude":-36.0162
       },
       {
          "nome":"Olho d'Água do Casado",
          "UF":"AL",
          "latitude":-9.50357,
          "longitude":-37.8301
       },
       {
          "nome":"Flexeiras",
          "UF":"AL",
          "latitude":-9.27281,
          "longitude":-35.7139
       },
       {
          "nome":"Porto Calvo",
          "UF":"AL",
          "latitude":-9.05195,
          "longitude":-35.3987
       },
       {
          "nome":"Matriz de Camaragibe",
          "UF":"AL",
          "latitude":-9.15437,
          "longitude":-35.5243
       },
       {
          "nome":"Coruripe",
          "UF":"AL",
          "latitude":-10.1276,
          "longitude":-36.1717
       },
       {
          "nome":"Paulo Jacinto",
          "UF":"AL",
          "latitude":-9.36792,
          "longitude":-36.3672
       },
       {
          "nome":"Tanque d'Arca",
          "UF":"AL",
          "latitude":-9.53379,
          "longitude":-36.4366
       },
       {
          "nome":"Passo de Camaragibe",
          "UF":"AL",
          "latitude":-9.24511,
          "longitude":-35.4745
       },
       {
          "nome":"Chã Preta",
          "UF":"AL",
          "latitude":-9.2556,
          "longitude":-36.2983
       },
       {
          "nome":"Paripueira",
          "UF":"AL",
          "latitude":-9.46313,
          "longitude":-35.552
       },
       {
          "nome":"Joaquim Gomes",
          "UF":"AL",
          "latitude":-9.1328,
          "longitude":-35.7474
       },
       {
          "nome":"Coité do Nóia",
          "UF":"AL",
          "latitude":-9.63348,
          "longitude":-36.5845
       },
       {
          "nome":"Girau do Ponciano",
          "UF":"AL",
          "latitude":-9.88404,
          "longitude":-36.8316
       },
       {
          "nome":"Atalaia",
          "UF":"AL",
          "latitude":-9.5119,
          "longitude":-36.0086
       },
       {
          "nome":"Junqueiro",
          "UF":"AL",
          "latitude":-9.90696,
          "longitude":-36.4803
       },
       {
          "nome":"Jundiá",
          "UF":"AL",
          "latitude":-8.93297,
          "longitude":-35.5669
       },
       {
          "nome":"Carneiros",
          "UF":"AL",
          "latitude":-9.48476,
          "longitude":-37.3773
       },
       {
          "nome":"Colônia Leopoldina",
          "UF":"AL",
          "latitude":-8.91806,
          "longitude":-35.7214
       },
       {
          "nome":"Coqueiro Seco",
          "UF":"AL",
          "latitude":-9.63715,
          "longitude":-35.7994
       },
       {
          "nome":"Roteiro",
          "UF":"AL",
          "latitude":-9.83503,
          "longitude":-35.9782
       },
       {
          "nome":"São Miguel dos Milagres",
          "UF":"AL",
          "latitude":-9.26493,
          "longitude":-35.3763
       },
       {
          "nome":"Monteirópolis",
          "UF":"AL",
          "latitude":-9.60357,
          "longitude":-37.2505
       },
       {
          "nome":"São Miguel dos Campos",
          "UF":"AL",
          "latitude":-9.78301,
          "longitude":-36.0971
       },
       {
          "nome":"Lagoa da Canoa",
          "UF":"AL",
          "latitude":-9.83291,
          "longitude":-36.7413
       },
       {
          "nome":"Murici",
          "UF":"AL",
          "latitude":-9.30682,
          "longitude":-35.9428
       },
       {
          "nome":"Olivença",
          "UF":"AL",
          "latitude":-9.51954,
          "longitude":-37.1954
       },
       {
          "nome":"Pariconha",
          "UF":"AL",
          "latitude":-9.25634,
          "longitude":-37.9988
       },
       {
          "nome":"Feira Grande",
          "UF":"AL",
          "latitude":-9.89859,
          "longitude":-36.6815
       },
       {
          "nome":"Feliz Deserto",
          "UF":"AL",
          "latitude":-10.2935,
          "longitude":-36.3028
       },
       {
          "nome":"Taquarana",
          "UF":"AL",
          "latitude":-9.64529,
          "longitude":-36.4928
       },
       {
          "nome":"Craíbas",
          "UF":"AL",
          "latitude":-9.6178,
          "longitude":-36.7697
       },
       {
          "nome":"Novo Lino",
          "UF":"AL",
          "latitude":-8.94191,
          "longitude":-35.664
       },
       {
          "nome":"Pão de Açúcar",
          "UF":"AL",
          "latitude":-9.74032,
          "longitude":-37.4403
       },
       {
          "nome":"Jequiá da Praia",
          "UF":"AL",
          "latitude":-10.0133,
          "longitude":-36.0142
       },
       {
          "nome":"Palmeira dos Índios",
          "UF":"AL",
          "latitude":-9.40568,
          "longitude":-36.6328
       },
       {
          "nome":"Jaramataia",
          "UF":"AL",
          "latitude":-9.66224,
          "longitude":-37.0046
       },
       {
          "nome":"Arapiraca",
          "UF":"AL",
          "latitude":-9.75487,
          "longitude":-36.6615
       },
       {
          "nome":"Delmiro Gouveia",
          "UF":"AL",
          "latitude":-9.38534,
          "longitude":-37.9987
       },
       {
          "nome":"Dois Riachos",
          "UF":"AL",
          "latitude":-9.38465,
          "longitude":-37.0965
       },
       {
          "nome":"Porto de Pedras",
          "UF":"AL",
          "latitude":-9.16006,
          "longitude":-35.3049
       },
       {
          "nome":"Japaratinga",
          "UF":"AL",
          "latitude":-9.08746,
          "longitude":-35.2634
       },
       {
          "nome":"Porto Real do Colégio",
          "UF":"AL",
          "latitude":-10.1849,
          "longitude":-36.8376
       },
       {
          "nome":"Palestina",
          "UF":"AL",
          "latitude":-9.67493,
          "longitude":-37.339
       },
       {
          "nome":"Olho d'Água das Flores",
          "UF":"AL",
          "latitude":-9.53686,
          "longitude":-37.2971
       },
       {
          "nome":"Jacaré dos Homens",
          "UF":"AL",
          "latitude":-9.63545,
          "longitude":-37.2076
       },
       {
          "nome":"Estrela de Alagoas",
          "UF":"AL",
          "latitude":-9.39089,
          "longitude":-36.7644
       },
       {
          "nome":"Satuba",
          "UF":"AL",
          "latitude":-9.56911,
          "longitude":-35.8227
       },
       {
          "nome":"Jacuípe",
          "UF":"AL",
          "latitude":-8.83951,
          "longitude":-35.4591
       },
       {
          "nome":"Ouro Branco",
          "UF":"AL",
          "latitude":-9.15884,
          "longitude":-37.3556
       },
       {
          "nome":"Senador Rui Palmeira",
          "UF":"AL",
          "latitude":-9.46986,
          "longitude":-37.4576
       },
       {
          "nome":"São Sebastião",
          "UF":"AL",
          "latitude":-9.93043,
          "longitude":-36.559
       }
    ],
    "AM":[
       {
          "nome":"Tefé",
          "UF":"AM",
          "latitude":-3.36822,
          "longitude":-64.7193
       },
       {
          "nome":"Silves",
          "UF":"AM",
          "latitude":-2.81748,
          "longitude":-58.248
       },
       {
          "nome":"Envira",
          "UF":"AM",
          "latitude":-7.43789,
          "longitude":-70.0281
       },
       {
          "nome":"Eirunepé",
          "UF":"AM",
          "latitude":-6.65677,
          "longitude":-69.8662
       },
       {
          "nome":"Alvarães",
          "UF":"AM",
          "latitude":-3.22727,
          "longitude":-64.8007
       },
       {
          "nome":"Parintins",
          "UF":"AM",
          "latitude":-2.63741,
          "longitude":-56.729
       },
       {
          "nome":"Tapauá",
          "UF":"AM",
          "latitude":-5.62085,
          "longitude":-63.1808
       },
       {
          "nome":"Coari",
          "UF":"AM",
          "latitude":-4.09412,
          "longitude":-63.1441
       },
       {
          "nome":"Itacoatiara",
          "UF":"AM",
          "latitude":-3.13861,
          "longitude":-58.4449
       },
       {
          "nome":"Pauini",
          "UF":"AM",
          "latitude":-7.71311,
          "longitude":-66.992
       },
       {
          "nome":"Careiro da Várzea",
          "UF":"AM",
          "latitude":-3.314,
          "longitude":-59.5557
       },
       {
          "nome":"Barreirinha",
          "UF":"AM",
          "latitude":-2.79886,
          "longitude":-57.0679
       },
       {
          "nome":"Codajás",
          "UF":"AM",
          "latitude":-3.83053,
          "longitude":-62.0658
       },
       {
          "nome":"Manaus",
          "UF":"AM",
          "latitude":-3.11866,
          "longitude":-60.0212
       },
       {
          "nome":"Maués",
          "UF":"AM",
          "latitude":-3.39289,
          "longitude":-57.7067
       },
       {
          "nome":"Presidente Figueiredo",
          "UF":"AM",
          "latitude":-2.02981,
          "longitude":-60.0234
       },
       {
          "nome":"Nhamundá",
          "UF":"AM",
          "latitude":-2.20793,
          "longitude":-56.7112
       },
       {
          "nome":"Itamarati",
          "UF":"AM",
          "latitude":-6.43852,
          "longitude":-68.2437
       },
       {
          "nome":"Japurá",
          "UF":"AM",
          "latitude":-1.88237,
          "longitude":-66.9291
       },
       {
          "nome":"Santo Antônio do Içá",
          "UF":"AM",
          "latitude":-3.09544,
          "longitude":-67.9463
       },
       {
          "nome":"Maraã",
          "UF":"AM",
          "latitude":-1.85313,
          "longitude":-65.573
       },
       {
          "nome":"Jutaí",
          "UF":"AM",
          "latitude":-2.75814,
          "longitude":-66.7595
       },
       {
          "nome":"São Gabriel da Cachoeira",
          "UF":"AM",
          "latitude":-0.11909,
          "longitude":-67.084
       },
       {
          "nome":"Itapiranga",
          "UF":"AM",
          "latitude":-2.74081,
          "longitude":-58.0293
       },
       {
          "nome":"Manicoré",
          "UF":"AM",
          "latitude":-5.80462,
          "longitude":-61.2895
       },
       {
          "nome":"Juruá",
          "UF":"AM",
          "latitude":-3.48438,
          "longitude":-66.0718
       },
       {
          "nome":"Manacapuru",
          "UF":"AM",
          "latitude":-3.29066,
          "longitude":-60.6216
       },
       {
          "nome":"Manaquiri",
          "UF":"AM",
          "latitude":-3.44078,
          "longitude":-60.4612
       },
       {
          "nome":"Careiro",
          "UF":"AM",
          "latitude":-3.76803,
          "longitude":-60.369
       },
       {
          "nome":"Lábrea",
          "UF":"AM",
          "latitude":-7.26413,
          "longitude":-64.7948
       },
       {
          "nome":"Carauari",
          "UF":"AM",
          "latitude":-4.88161,
          "longitude":-66.9086
       },
       {
          "nome":"Fonte Boa",
          "UF":"AM",
          "latitude":-2.52342,
          "longitude":-66.0942
       },
       {
          "nome":"Canutama",
          "UF":"AM",
          "latitude":-6.52582,
          "longitude":-64.3953
       },
       {
          "nome":"Anamã",
          "UF":"AM",
          "latitude":-3.56697,
          "longitude":-61.3963
       },
       {
          "nome":"São Paulo de Olivença",
          "UF":"AM",
          "latitude":-3.47292,
          "longitude":-68.9646
       },
       {
          "nome":"Guajará",
          "UF":"AM",
          "latitude":-7.53797,
          "longitude":-72.5907
       },
       {
          "nome":"Iranduba",
          "UF":"AM",
          "latitude":-3.27479,
          "longitude":-60.19
       },
       {
          "nome":"Santa Isabel do Rio Negro",
          "UF":"AM",
          "latitude":-0.410824,
          "longitude":-65.0092
       },
       {
          "nome":"Amaturá",
          "UF":"AM",
          "latitude":-3.37455,
          "longitude":-68.2005
       },
       {
          "nome":"Novo Airão",
          "UF":"AM",
          "latitude":-2.63637,
          "longitude":-60.9434
       },
       {
          "nome":"Novo Aripuanã",
          "UF":"AM",
          "latitude":-5.12593,
          "longitude":-60.3732
       },
       {
          "nome":"Ipixuna",
          "UF":"AM",
          "latitude":-7.04791,
          "longitude":-71.6934
       },
       {
          "nome":"Anori",
          "UF":"AM",
          "latitude":-3.74603,
          "longitude":-61.6575
       },
       {
          "nome":"São Sebastião do Uatumã",
          "UF":"AM",
          "latitude":-2.55915,
          "longitude":-57.8731
       },
       {
          "nome":"Nova Olinda do Norte",
          "UF":"AM",
          "latitude":-3.90037,
          "longitude":-59.094
       },
       {
          "nome":"Tabatinga",
          "UF":"AM",
          "latitude":-4.2416,
          "longitude":-69.9383
       },
       {
          "nome":"Apuí",
          "UF":"AM",
          "latitude":-7.19409,
          "longitude":-59.896
       },
       {
          "nome":"Humaitá",
          "UF":"AM",
          "latitude":-7.51171,
          "longitude":-63.0327
       },
       {
          "nome":"Beruri",
          "UF":"AM",
          "latitude":-3.89874,
          "longitude":-61.3616
       },
       {
          "nome":"Atalaia do Norte",
          "UF":"AM",
          "latitude":-4.37055,
          "longitude":-70.1967
       },
       {
          "nome":"Rio Preto da Eva",
          "UF":"AM",
          "latitude":-2.7045,
          "longitude":-59.6858
       },
       {
          "nome":"Autazes",
          "UF":"AM",
          "latitude":-3.58574,
          "longitude":-59.1256
       },
       {
          "nome":"Benjamin Constant",
          "UF":"AM",
          "latitude":-4.37768,
          "longitude":-70.0342
       },
       {
          "nome":"Urucará",
          "UF":"AM",
          "latitude":-2.52936,
          "longitude":-57.7538
       },
       {
          "nome":"Tonantins",
          "UF":"AM",
          "latitude":-2.86582,
          "longitude":-67.7919
       },
       {
          "nome":"Urucurituba",
          "UF":"AM",
          "latitude":-3.12841,
          "longitude":-58.1496
       },
       {
          "nome":"Borba",
          "UF":"AM",
          "latitude":-4.39154,
          "longitude":-59.5874
       },
       {
          "nome":"Barcelos",
          "UF":"AM",
          "latitude":-0.983373,
          "longitude":-62.9311
       },
       {
          "nome":"Boca do Acre",
          "UF":"AM",
          "latitude":-8.74232,
          "longitude":-67.3919
       },
       {
          "nome":"Boa Vista do Ramos",
          "UF":"AM",
          "latitude":-2.97409,
          "longitude":-57.5873
       },
       {
          "nome":"Uarini",
          "UF":"AM",
          "latitude":-2.99609,
          "longitude":-65.1133
       },
       {
          "nome":"Caapiranga",
          "UF":"AM",
          "latitude":-3.31537,
          "longitude":-61.2206
       }
    ],
    "AP":[
       {
          "nome":"Laranjal do Jari",
          "UF":"AP",
          "latitude":-0.804911,
          "longitude":-52.453
       },
       {
          "nome":"Calçoene",
          "UF":"AP",
          "latitude":2.50475,
          "longitude":-50.9512
       },
       {
          "nome":"Oiapoque",
          "UF":"AP",
          "latitude":3.84074,
          "longitude":-51.8331
       },
       {
          "nome":"Macapá",
          "UF":"AP",
          "latitude":0.034934,
          "longitude":-51.0694
       },
       {
          "nome":"Amapá",
          "UF":"AP",
          "latitude":2.05267,
          "longitude":-50.7957
       },
       {
          "nome":"Mazagão",
          "UF":"AP",
          "latitude":-0.11336,
          "longitude":-51.2891
       },
       {
          "nome":"Santana",
          "UF":"AP",
          "latitude":-0.045434,
          "longitude":-51.1729
       },
       {
          "nome":"Itaubal",
          "UF":"AP",
          "latitude":0.602185,
          "longitude":-50.6996
       },
       {
          "nome":"Serra do Navio",
          "UF":"AP",
          "latitude":0.901357,
          "longitude":-52.0036
       },
       {
          "nome":"Cutias",
          "UF":"AP",
          "latitude":0.970761,
          "longitude":-50.8005
       },
       {
          "nome":"Porto Grande",
          "UF":"AP",
          "latitude":0.71243,
          "longitude":-51.4155
       },
       {
          "nome":"Pedra Branca do Amapari",
          "UF":"AP",
          "latitude":0.777424,
          "longitude":-51.9503
       },
       {
          "nome":"Tartarugalzinho",
          "UF":"AP",
          "latitude":1.50652,
          "longitude":-50.9087
       },
       {
          "nome":"Pracuúba",
          "UF":"AP",
          "latitude":1.74543,
          "longitude":-50.7892
       },
       {
          "nome":"Ferreira Gomes",
          "UF":"AP",
          "latitude":0.857256,
          "longitude":-51.1795
       },
       {
          "nome":"Vitória do Jari",
          "UF":"AP",
          "latitude":-0.938,
          "longitude":-52.424
       }
    ],
    "BA":[
       {
          "nome":"Contendas do Sincorá",
          "UF":"BA",
          "latitude":-13.7537,
          "longitude":-41.048
       },
       {
          "nome":"Jucuruçu",
          "UF":"BA",
          "latitude":-16.8488,
          "longitude":-40.1641
       },
       {
          "nome":"Coração de Maria",
          "UF":"BA",
          "latitude":-12.2333,
          "longitude":-38.7487
       },
       {
          "nome":"Palmas de Monte Alto",
          "UF":"BA",
          "latitude":-14.2676,
          "longitude":-43.1609
       },
       {
          "nome":"Coribe",
          "UF":"BA",
          "latitude":-13.8232,
          "longitude":-44.4586
       },
       {
          "nome":"Condeúba",
          "UF":"BA",
          "latitude":-14.9022,
          "longitude":-41.9718
       },
       {
          "nome":"Paramirim",
          "UF":"BA",
          "latitude":-13.4388,
          "longitude":-42.2395
       },
       {
          "nome":"Sobradinho",
          "UF":"BA",
          "latitude":-9.45024,
          "longitude":-40.8145
       },
       {
          "nome":"Santa Luzia",
          "UF":"BA",
          "latitude":-15.4342,
          "longitude":-39.3287
       },
       {
          "nome":"Conde",
          "UF":"BA",
          "latitude":-11.8179,
          "longitude":-37.6131
       },
       {
          "nome":"Serrolândia",
          "UF":"BA",
          "latitude":-11.4085,
          "longitude":-40.2983
       },
       {
          "nome":"Crisópolis",
          "UF":"BA",
          "latitude":-11.5059,
          "longitude":-38.1515
       },
       {
          "nome":"São Francisco do Conde",
          "UF":"BA",
          "latitude":-12.6183,
          "longitude":-38.6786
       },
       {
          "nome":"Serra do Ramalho",
          "UF":"BA",
          "latitude":-13.5659,
          "longitude":-43.5929
       },
       {
          "nome":"Serra Dourada",
          "UF":"BA",
          "latitude":-12.759,
          "longitude":-43.9504
       },
       {
          "nome":"Dom Macedo Costa",
          "UF":"BA",
          "latitude":-12.9016,
          "longitude":-39.1923
       },
       {
          "nome":"Dom Basílio",
          "UF":"BA",
          "latitude":-13.7565,
          "longitude":-41.7677
       },
       {
          "nome":"Serra Preta",
          "UF":"BA",
          "latitude":-12.156,
          "longitude":-39.3305
       },
       {
          "nome":"Dias d'Ávila",
          "UF":"BA",
          "latitude":-12.6187,
          "longitude":-38.2926
       },
       {
          "nome":"Serrinha",
          "UF":"BA",
          "latitude":-11.6584,
          "longitude":-39.01
       },
       {
          "nome":"Coronel João Sá",
          "UF":"BA",
          "latitude":-10.2847,
          "longitude":-37.9198
       },
       {
          "nome":"Cravolândia",
          "UF":"BA",
          "latitude":-13.3531,
          "longitude":-39.8031
       },
       {
          "nome":"Sítio do Quinto",
          "UF":"BA",
          "latitude":-10.3545,
          "longitude":-38.2213
       },
       {
          "nome":"Iuiú",
          "UF":"BA",
          "latitude":-14.4054,
          "longitude":-43.5595
       },
       {
          "nome":"Correntina",
          "UF":"BA",
          "latitude":-13.3477,
          "longitude":-44.6333
       },
       {
          "nome":"Filadélfia",
          "UF":"BA",
          "latitude":-10.7405,
          "longitude":-40.1437
       },
       {
          "nome":"Oliveira dos Brejinhos",
          "UF":"BA",
          "latitude":-12.3132,
          "longitude":-42.8969
       },
       {
          "nome":"Dário Meira",
          "UF":"BA",
          "latitude":-14.4229,
          "longitude":-39.9031
       },
       {
          "nome":"Santa Bárbara",
          "UF":"BA",
          "latitude":-11.9515,
          "longitude":-38.9681
       },
       {
          "nome":"Muquém de São Francisco",
          "UF":"BA",
          "latitude":-12.065,
          "longitude":-43.5497
       },
       {
          "nome":"Muniz Ferreira",
          "UF":"BA",
          "latitude":-13.0092,
          "longitude":-39.1092
       },
       {
          "nome":"Feira de Santana",
          "UF":"BA",
          "latitude":-12.2664,
          "longitude":-38.9663
       },
       {
          "nome":"Feira da Mata",
          "UF":"BA",
          "latitude":-14.2044,
          "longitude":-44.2744
       },
       {
          "nome":"Jaborandi",
          "UF":"BA",
          "latitude":-13.6071,
          "longitude":-44.4255
       },
       {
          "nome":"São Gonçalo dos Campos",
          "UF":"BA",
          "latitude":-12.4331,
          "longitude":-38.9663
       },
       {
          "nome":"Jacaraci",
          "UF":"BA",
          "latitude":-14.8541,
          "longitude":-42.4329
       },
       {
          "nome":"Sátiro Dias",
          "UF":"BA",
          "latitude":-11.5929,
          "longitude":-38.5938
       },
       {
          "nome":"Mundo Novo",
          "UF":"BA",
          "latitude":-11.8541,
          "longitude":-40.4714
       },
       {
          "nome":"Elísio Medrado",
          "UF":"BA",
          "latitude":-12.9417,
          "longitude":-39.5191
       },
       {
          "nome":"Jandaíra",
          "UF":"BA",
          "latitude":-11.5616,
          "longitude":-37.7853
       },
       {
          "nome":"Salinas da Margarida",
          "UF":"BA",
          "latitude":-12.873,
          "longitude":-38.7562
       },
       {
          "nome":"Mortugaba",
          "UF":"BA",
          "latitude":-15.0225,
          "longitude":-42.3727
       },
       {
          "nome":"Jiquiriçá",
          "UF":"BA",
          "latitude":-13.2621,
          "longitude":-39.5737
       },
       {
          "nome":"Simões Filho",
          "UF":"BA",
          "latitude":-12.7866,
          "longitude":-38.4029
       },
       {
          "nome":"Jitaúna",
          "UF":"BA",
          "latitude":-14.0131,
          "longitude":-39.8969
       },
       {
          "nome":"Cotegipe",
          "UF":"BA",
          "latitude":-12.0228,
          "longitude":-44.2566
       },
       {
          "nome":"João Dourado",
          "UF":"BA",
          "latitude":-11.3486,
          "longitude":-41.6548
       },
       {
          "nome":"Juazeiro",
          "UF":"BA",
          "latitude":-9.41622,
          "longitude":-40.5033
       },
       {
          "nome":"Sítio do Mato",
          "UF":"BA",
          "latitude":-13.0801,
          "longitude":-43.4689
       },
       {
          "nome":"Cristópolis",
          "UF":"BA",
          "latitude":-12.2249,
          "longitude":-44.4214
       },
       {
          "nome":"Ichu",
          "UF":"BA",
          "latitude":-11.7431,
          "longitude":-39.1905
       },
       {
          "nome":"Morro do Chapéu",
          "UF":"BA",
          "latitude":-11.5488,
          "longitude":-41.1565
       },
       {
          "nome":"Nova Ibiá",
          "UF":"BA",
          "latitude":-13.812,
          "longitude":-39.6182
       },
       {
          "nome":"Itajuípe",
          "UF":"BA",
          "latitude":-14.6788,
          "longitude":-39.3698
       },
       {
          "nome":"Itaju do Colônia",
          "UF":"BA",
          "latitude":-15.1366,
          "longitude":-39.7283
       },
       {
          "nome":"Ipecaetá",
          "UF":"BA",
          "latitude":-12.3028,
          "longitude":-39.3069
       },
       {
          "nome":"Iraquara",
          "UF":"BA",
          "latitude":-12.2429,
          "longitude":-41.6155
       },
       {
          "nome":"Itagi",
          "UF":"BA",
          "latitude":-14.1615,
          "longitude":-40.0131
       },
       {
          "nome":"Itacaré",
          "UF":"BA",
          "latitude":-14.2784,
          "longitude":-38.9959
       },
       {
          "nome":"Itabuna",
          "UF":"BA",
          "latitude":-14.7876,
          "longitude":-39.2781
       },
       {
          "nome":"Itaberaba",
          "UF":"BA",
          "latitude":-12.5242,
          "longitude":-40.3059
       },
       {
          "nome":"Itabela",
          "UF":"BA",
          "latitude":-16.5732,
          "longitude":-39.5593
       },
       {
          "nome":"Ibirapitanga",
          "UF":"BA",
          "latitude":-14.1649,
          "longitude":-39.3787
       },
       {
          "nome":"Nilo Peçanha",
          "UF":"BA",
          "latitude":-13.604,
          "longitude":-39.1091
       },
       {
          "nome":"Irará",
          "UF":"BA",
          "latitude":-12.0504,
          "longitude":-38.7631
       },
       {
          "nome":"Nordestina",
          "UF":"BA",
          "latitude":-10.8192,
          "longitude":-39.4297
       },
       {
          "nome":"Ipiaú",
          "UF":"BA",
          "latitude":-14.1226,
          "longitude":-39.7353
       },
       {
          "nome":"Itagibá",
          "UF":"BA",
          "latitude":-14.2782,
          "longitude":-39.8449
       },
       {
          "nome":"Iramaia",
          "UF":"BA",
          "latitude":-13.2902,
          "longitude":-40.9595
       },
       {
          "nome":"Irajuba",
          "UF":"BA",
          "latitude":-13.2563,
          "longitude":-40.0848
       },
       {
          "nome":"Itagimirim",
          "UF":"BA",
          "latitude":-16.0819,
          "longitude":-39.6133
       },
       {
          "nome":"Ipupiara",
          "UF":"BA",
          "latitude":-11.8219,
          "longitude":-42.6179
       },
       {
          "nome":"Itaguaçu da Bahia",
          "UF":"BA",
          "latitude":-11.0147,
          "longitude":-42.3997
       },
       {
          "nome":"Firmino Alves",
          "UF":"BA",
          "latitude":-14.9823,
          "longitude":-39.9269
       },
       {
          "nome":"Irecê",
          "UF":"BA",
          "latitude":-11.3033,
          "longitude":-41.8535
       },
       {
          "nome":"Ibirapuã",
          "UF":"BA",
          "latitude":-17.6832,
          "longitude":-40.1129
       },
       {
          "nome":"Ibirataia",
          "UF":"BA",
          "latitude":-14.0643,
          "longitude":-39.6459
       },
       {
          "nome":"Ibitiara",
          "UF":"BA",
          "latitude":-12.6502,
          "longitude":-42.2179
       },
       {
          "nome":"Curaçá",
          "UF":"BA",
          "latitude":-8.98458,
          "longitude":-39.8997
       },
       {
          "nome":"Ruy Barbosa",
          "UF":"BA",
          "latitude":-12.2816,
          "longitude":-40.4931
       },
       {
          "nome":"Morpará",
          "UF":"BA",
          "latitude":-11.5569,
          "longitude":-43.2766
       },
       {
          "nome":"Jequié",
          "UF":"BA",
          "latitude":-13.8509,
          "longitude":-40.0877
       },
       {
          "nome":"Jeremoabo",
          "UF":"BA",
          "latitude":-10.0685,
          "longitude":-38.3471
       },
       {
          "nome":"Cruz das Almas",
          "UF":"BA",
          "latitude":-12.6675,
          "longitude":-39.1008
       },
       {
          "nome":"Itororó",
          "UF":"BA",
          "latitude":-15.11,
          "longitude":-40.0684
       },
       {
          "nome":"Itiúba",
          "UF":"BA",
          "latitude":-10.6948,
          "longitude":-39.8446
       },
       {
          "nome":"Itiruçu",
          "UF":"BA",
          "latitude":-13.529,
          "longitude":-40.1472
       },
       {
          "nome":"Ibiquera",
          "UF":"BA",
          "latitude":-12.6444,
          "longitude":-40.9338
       },
       {
          "nome":"Inhambupe",
          "UF":"BA",
          "latitude":-11.781,
          "longitude":-38.355
       },
       {
          "nome":"Santa Inês",
          "UF":"BA",
          "latitude":-13.2793,
          "longitude":-39.814
       },
       {
          "nome":"Nova Canaã",
          "UF":"BA",
          "latitude":-14.7912,
          "longitude":-40.1458
       },
       {
          "nome":"São José do Jacuípe",
          "UF":"BA",
          "latitude":-11.4137,
          "longitude":-39.8669
       },
       {
          "nome":"Ilhéus",
          "UF":"BA",
          "latitude":-14.793,
          "longitude":-39.046
       },
       {
          "nome":"Iguaí",
          "UF":"BA",
          "latitude":-14.7528,
          "longitude":-40.0894
       },
       {
          "nome":"Itamaraju",
          "UF":"BA",
          "latitude":-17.0378,
          "longitude":-39.5386
       },
       {
          "nome":"Igrapiúna",
          "UF":"BA",
          "latitude":-13.8295,
          "longitude":-39.1361
       },
       {
          "nome":"Nova Fátima",
          "UF":"BA",
          "latitude":-11.6031,
          "longitude":-39.6302
       },
       {
          "nome":"Igaporã",
          "UF":"BA",
          "latitude":-13.774,
          "longitude":-42.7155
       },
       {
          "nome":"Ibotirama",
          "UF":"BA",
          "latitude":-12.1779,
          "longitude":-43.2167
       },
       {
          "nome":"Ibititá",
          "UF":"BA",
          "latitude":-11.5414,
          "longitude":-41.9748
       },
       {
          "nome":"Itamari",
          "UF":"BA",
          "latitude":-13.7782,
          "longitude":-39.683
       },
       {
          "nome":"São Gabriel",
          "UF":"BA",
          "latitude":-11.2175,
          "longitude":-41.8843
       },
       {
          "nome":"Ituberá",
          "UF":"BA",
          "latitude":-13.7249,
          "longitude":-39.1481
       },
       {
          "nome":"Wenceslau Guimarães",
          "UF":"BA",
          "latitude":-13.6908,
          "longitude":-39.4762
       },
       {
          "nome":"Barro Alto",
          "UF":"BA",
          "latitude":-11.7605,
          "longitude":-41.9054
       },
       {
          "nome":"Andaraí",
          "UF":"BA",
          "latitude":-12.8049,
          "longitude":-41.3297
       },
       {
          "nome":"Andorinha",
          "UF":"BA",
          "latitude":-10.3482,
          "longitude":-39.8391
       },
       {
          "nome":"Barra da Estiva",
          "UF":"BA",
          "latitude":-13.6237,
          "longitude":-41.3347
       },
       {
          "nome":"Aporá",
          "UF":"BA",
          "latitude":-11.6577,
          "longitude":-38.0814
       },
       {
          "nome":"Antônio Gonçalves",
          "UF":"BA",
          "latitude":-10.5767,
          "longitude":-40.2785
       },
       {
          "nome":"Amargosa",
          "UF":"BA",
          "latitude":-13.0215,
          "longitude":-39.602
       },
       {
          "nome":"Umburanas",
          "UF":"BA",
          "latitude":-10.7339,
          "longitude":-41.3234
       },
       {
          "nome":"Amélia Rodrigues",
          "UF":"BA",
          "latitude":-12.3914,
          "longitude":-38.7563
       },
       {
          "nome":"Abaíra",
          "UF":"BA",
          "latitude":-13.2488,
          "longitude":-41.6619
       },
       {
          "nome":"Quixabeira",
          "UF":"BA",
          "latitude":-11.4031,
          "longitude":-40.12
       },
       {
          "nome":"Anagé",
          "UF":"BA",
          "latitude":-14.6151,
          "longitude":-41.1356
       },
       {
          "nome":"Angical",
          "UF":"BA",
          "latitude":-12.0063,
          "longitude":-44.7003
       },
       {
          "nome":"Porto Seguro",
          "UF":"BA",
          "latitude":-16.4435,
          "longitude":-39.0643
       },
       {
          "nome":"Araci",
          "UF":"BA",
          "latitude":-11.3253,
          "longitude":-38.9584
       },
       {
          "nome":"Barra do Mendes",
          "UF":"BA",
          "latitude":-11.81,
          "longitude":-42.059
       },
       {
          "nome":"Vereda",
          "UF":"BA",
          "latitude":-17.2183,
          "longitude":-40.0974
       },
       {
          "nome":"Barra",
          "UF":"BA",
          "latitude":-11.0859,
          "longitude":-43.1459
       },
       {
          "nome":"Rafael Jambeiro",
          "UF":"BA",
          "latitude":-12.4053,
          "longitude":-39.5007
       },
       {
          "nome":"Xique-Xique",
          "UF":"BA",
          "latitude":-10.823,
          "longitude":-42.7245
       },
       {
          "nome":"Valente",
          "UF":"BA",
          "latitude":-11.4062,
          "longitude":-39.457
       },
       {
          "nome":"Retirolândia",
          "UF":"BA",
          "latitude":-11.4832,
          "longitude":-39.4234
       },
       {
          "nome":"Alcobaça",
          "UF":"BA",
          "latitude":-17.5195,
          "longitude":-39.2036
       },
       {
          "nome":"Presidente Jânio Quadros",
          "UF":"BA",
          "latitude":-14.6885,
          "longitude":-41.6798
       },
       {
          "nome":"Acajutiba",
          "UF":"BA",
          "latitude":-11.6575,
          "longitude":-38.0197
       },
       {
          "nome":"Apuarema",
          "UF":"BA",
          "latitude":-13.8542,
          "longitude":-39.7501
       },
       {
          "nome":"Prado",
          "UF":"BA",
          "latitude":-17.3364,
          "longitude":-39.2227
       },
       {
          "nome":"Presidente Tancredo Neves",
          "UF":"BA",
          "latitude":-13.4471,
          "longitude":-39.4203
       },
       {
          "nome":"Várzea Nova",
          "UF":"BA",
          "latitude":-11.2557,
          "longitude":-40.9432
       },
       {
          "nome":"São José da Vitória",
          "UF":"BA",
          "latitude":-15.0787,
          "longitude":-39.3437
       },
       {
          "nome":"América Dourada",
          "UF":"BA",
          "latitude":-11.4429,
          "longitude":-41.439
       },
       {
          "nome":"Wagner",
          "UF":"BA",
          "latitude":-12.2819,
          "longitude":-41.1715
       },
       {
          "nome":"Quijingue",
          "UF":"BA",
          "latitude":-10.7505,
          "longitude":-39.2137
       },
       {
          "nome":"Riachão do Jacuípe",
          "UF":"BA",
          "latitude":-11.8067,
          "longitude":-39.3818
       },
       {
          "nome":"Aratuípe",
          "UF":"BA",
          "latitude":-13.0716,
          "longitude":-39.0038
       },
       {
          "nome":"Água Fria",
          "UF":"BA",
          "latitude":-11.8618,
          "longitude":-38.7639
       },
       {
          "nome":"Wanderley",
          "UF":"BA",
          "latitude":-12.1144,
          "longitude":-43.8958
       },
       {
          "nome":"Remanso",
          "UF":"BA",
          "latitude":-9.61944,
          "longitude":-42.0848
       },
       {
          "nome":"Queimadas",
          "UF":"BA",
          "latitude":-10.9736,
          "longitude":-39.6293
       },
       {
          "nome":"Arataca",
          "UF":"BA",
          "latitude":-15.2651,
          "longitude":-39.419
       },
       {
          "nome":"Varzedo",
          "UF":"BA",
          "latitude":-12.9672,
          "longitude":-39.3919
       },
       {
          "nome":"Araças",
          "UF":"BA",
          "latitude":-12.22,
          "longitude":-38.2027
       },
       {
          "nome":"Almadina",
          "UF":"BA",
          "latitude":-14.7089,
          "longitude":-39.6415
       },
       {
          "nome":"Potiraguá",
          "UF":"BA",
          "latitude":-15.5943,
          "longitude":-39.8638
       },
       {
          "nome":"Pojuca",
          "UF":"BA",
          "latitude":-12.4303,
          "longitude":-38.3374
       },
       {
          "nome":"Aramari",
          "UF":"BA",
          "latitude":-12.0884,
          "longitude":-38.4969
       },
       {
          "nome":"Urandi",
          "UF":"BA",
          "latitude":-14.7678,
          "longitude":-42.6498
       },
       {
          "nome":"Banzaê",
          "UF":"BA",
          "latitude":-10.5788,
          "longitude":-38.6212
       },
       {
          "nome":"Barreiras",
          "UF":"BA",
          "latitude":-12.1439,
          "longitude":-44.9968
       },
       {
          "nome":"Antas",
          "UF":"BA",
          "latitude":-10.3856,
          "longitude":-38.3401
       },
       {
          "nome":"Ponto Novo",
          "UF":"BA",
          "latitude":-10.8653,
          "longitude":-40.1311
       },
       {
          "nome":"Riacho de Santana",
          "UF":"BA",
          "latitude":-13.6059,
          "longitude":-42.9397
       },
       {
          "nome":"Barra do Choça",
          "UF":"BA",
          "latitude":-14.8654,
          "longitude":-40.5791
       },
       {
          "nome":"Ouriçangas",
          "UF":"BA",
          "latitude":-12.0175,
          "longitude":-38.6166
       },
       {
          "nome":"Jacobina",
          "UF":"BA",
          "latitude":-11.1812,
          "longitude":-40.5117
       },
       {
          "nome":"Salvador",
          "UF":"BA",
          "latitude":-12.9718,
          "longitude":-38.5011
       },
       {
          "nome":"Mulungu do Morro",
          "UF":"BA",
          "latitude":-11.9648,
          "longitude":-41.6374
       },
       {
          "nome":"Esplanada",
          "UF":"BA",
          "latitude":-11.7942,
          "longitude":-37.9432
       },
       {
          "nome":"Jaguaquara",
          "UF":"BA",
          "latitude":-13.5248,
          "longitude":-39.964
       },
       {
          "nome":"Jaguarari",
          "UF":"BA",
          "latitude":-10.2569,
          "longitude":-40.1999
       },
       {
          "nome":"Érico Cardoso",
          "UF":"BA",
          "latitude":-13.4215,
          "longitude":-42.1352
       },
       {
          "nome":"Jaguaripe",
          "UF":"BA",
          "latitude":-13.1109,
          "longitude":-38.8939
       },
       {
          "nome":"Ourolândia",
          "UF":"BA",
          "latitude":-10.9578,
          "longitude":-41.0756
       },
       {
          "nome":"Euclides da Cunha",
          "UF":"BA",
          "latitude":-10.5078,
          "longitude":-39.0153
       },
       {
          "nome":"Mucuri",
          "UF":"BA",
          "latitude":-18.0754,
          "longitude":-39.5565
       },
       {
          "nome":"Entre Rios",
          "UF":"BA",
          "latitude":-11.9392,
          "longitude":-38.0871
       },
       {
          "nome":"Senhor do Bonfim",
          "UF":"BA",
          "latitude":-10.4594,
          "longitude":-40.1865
       },
       {
          "nome":"Encruzilhada",
          "UF":"BA",
          "latitude":-15.5302,
          "longitude":-40.9124
       },
       {
          "nome":"Sento Sé",
          "UF":"BA",
          "latitude":-9.74138,
          "longitude":-41.8786
       },
       {
          "nome":"Seabra",
          "UF":"BA",
          "latitude":-12.4169,
          "longitude":-41.7722
       },
       {
          "nome":"Saubara",
          "UF":"BA",
          "latitude":-12.7387,
          "longitude":-38.7625
       },
       {
          "nome":"Conceição do Coité",
          "UF":"BA",
          "latitude":-11.56,
          "longitude":-39.2808
       },
       {
          "nome":"Fátima",
          "UF":"BA",
          "latitude":-10.616,
          "longitude":-38.2239
       },
       {
          "nome":"Ituaçu",
          "UF":"BA",
          "latitude":-13.8107,
          "longitude":-41.3003
       },
       {
          "nome":"Floresta Azul",
          "UF":"BA",
          "latitude":-14.8629,
          "longitude":-39.6579
       },
       {
          "nome":"Mucugê",
          "UF":"BA",
          "latitude":-13.0053,
          "longitude":-41.3703
       },
       {
          "nome":"Sebastião Laranjeiras",
          "UF":"BA",
          "latitude":-14.571,
          "longitude":-42.9434
       },
       {
          "nome":"Eunápolis",
          "UF":"BA",
          "latitude":-16.3715,
          "longitude":-39.5821
       },
       {
          "nome":"Saúde",
          "UF":"BA",
          "latitude":-10.9428,
          "longitude":-40.4155
       },
       {
          "nome":"Anguera",
          "UF":"BA",
          "latitude":-12.1462,
          "longitude":-39.2462
       },
       {
          "nome":"Utinga",
          "UF":"BA",
          "latitude":-12.0783,
          "longitude":-41.0954
       },
       {
          "nome":"Aracatu",
          "UF":"BA",
          "latitude":-14.428,
          "longitude":-41.4648
       },
       {
          "nome":"Antônio Cardoso",
          "UF":"BA",
          "latitude":-12.4335,
          "longitude":-39.1176
       },
       {
          "nome":"Vera Cruz",
          "UF":"BA",
          "latitude":-12.9568,
          "longitude":-38.6153
       },
       {
          "nome":"Aurelino Leal",
          "UF":"BA",
          "latitude":-14.321,
          "longitude":-39.329
       },
       {
          "nome":"Vitória da Conquista",
          "UF":"BA",
          "latitude":-14.8615,
          "longitude":-40.8442
       },
       {
          "nome":"Adustina",
          "UF":"BA",
          "latitude":-10.5437,
          "longitude":-38.1113
       },
       {
          "nome":"Barra do Rocha",
          "UF":"BA",
          "latitude":-14.2,
          "longitude":-39.5991
       },
       {
          "nome":"Uruçuca",
          "UF":"BA",
          "latitude":-14.5963,
          "longitude":-39.2851
       },
       {
          "nome":"Abaré",
          "UF":"BA",
          "latitude":-8.72073,
          "longitude":-39.1162
       },
       {
          "nome":"Aiquara",
          "UF":"BA",
          "latitude":-14.1269,
          "longitude":-39.8937
       },
       {
          "nome":"Várzea do Poço",
          "UF":"BA",
          "latitude":-11.5273,
          "longitude":-40.3149
       },
       {
          "nome":"Várzea da Roça",
          "UF":"BA",
          "latitude":-11.6005,
          "longitude":-40.1328
       },
       {
          "nome":"Una",
          "UF":"BA",
          "latitude":-15.2791,
          "longitude":-39.0765
       },
       {
          "nome":"Baixa Grande",
          "UF":"BA",
          "latitude":-11.9519,
          "longitude":-40.169
       },
       {
          "nome":"Poções",
          "UF":"BA",
          "latitude":-14.5234,
          "longitude":-40.3634
       },
       {
          "nome":"Presidente Dutra",
          "UF":"BA",
          "latitude":-11.2923,
          "longitude":-41.9843
       },
       {
          "nome":"Alagoinhas",
          "UF":"BA",
          "latitude":-12.1335,
          "longitude":-38.4208
       },
       {
          "nome":"Baianópolis",
          "UF":"BA",
          "latitude":-12.3016,
          "longitude":-44.5388
       },
       {
          "nome":"Valença",
          "UF":"BA",
          "latitude":-13.3669,
          "longitude":-39.073
       },
       {
          "nome":"Palmeiras",
          "UF":"BA",
          "latitude":-12.5059,
          "longitude":-41.5809
       },
       {
          "nome":"Sapeaçu",
          "UF":"BA",
          "latitude":-12.7208,
          "longitude":-39.1824
       },
       {
          "nome":"Olindina",
          "UF":"BA",
          "latitude":-11.3497,
          "longitude":-38.3379
       },
       {
          "nome":"Ipirá",
          "UF":"BA",
          "latitude":-12.1561,
          "longitude":-39.7359
       },
       {
          "nome":"Riachão das Neves",
          "UF":"BA",
          "latitude":-11.7508,
          "longitude":-44.9143
       },
       {
          "nome":"Ibipitanga",
          "UF":"BA",
          "latitude":-12.8804,
          "longitude":-42.4856
       },
       {
          "nome":"Macajuba",
          "UF":"BA",
          "latitude":-12.1326,
          "longitude":-40.3571
       },
       {
          "nome":"Macaúbas",
          "UF":"BA",
          "latitude":-13.0186,
          "longitude":-42.6945
       },
       {
          "nome":"Canarana",
          "UF":"BA",
          "latitude":-11.6858,
          "longitude":-41.7677
       },
       {
          "nome":"Rodelas",
          "UF":"BA",
          "latitude":-8.85021,
          "longitude":-38.78
       },
       {
          "nome":"Tanque Novo",
          "UF":"BA",
          "latitude":-13.5485,
          "longitude":-42.4934
       },
       {
          "nome":"Caturama",
          "UF":"BA",
          "latitude":-13.3239,
          "longitude":-42.2904
       },
       {
          "nome":"Tanquinho",
          "UF":"BA",
          "latitude":-11.968,
          "longitude":-39.1033
       },
       {
          "nome":"Catu",
          "UF":"BA",
          "latitude":-12.3513,
          "longitude":-38.3791
       },
       {
          "nome":"Catolândia",
          "UF":"BA",
          "latitude":-12.31,
          "longitude":-44.8648
       },
       {
          "nome":"Lagoa Real",
          "UF":"BA",
          "latitude":-14.0334,
          "longitude":-42.1328
       },
       {
          "nome":"Boa Nova",
          "UF":"BA",
          "latitude":-14.3598,
          "longitude":-40.2064
       },
       {
          "nome":"Castro Alves",
          "UF":"BA",
          "latitude":-12.7579,
          "longitude":-39.4248
       },
       {
          "nome":"Taperoá",
          "UF":"BA",
          "latitude":-13.5321,
          "longitude":-39.1009
       },
       {
          "nome":"Lapão",
          "UF":"BA",
          "latitude":-11.3851,
          "longitude":-41.8286
       },
       {
          "nome":"Casa Nova",
          "UF":"BA",
          "latitude":-9.16408,
          "longitude":-40.974
       },
       {
          "nome":"Paulo Afonso",
          "UF":"BA",
          "latitude":-9.3983,
          "longitude":-38.2216
       },
       {
          "nome":"Lajedão",
          "UF":"BA",
          "latitude":-17.6056,
          "longitude":-40.3383
       },
       {
          "nome":"Tapiramutá",
          "UF":"BA",
          "latitude":-11.8475,
          "longitude":-40.7927
       },
       {
          "nome":"Carinhanha",
          "UF":"BA",
          "latitude":-14.2985,
          "longitude":-43.7724
       },
       {
          "nome":"Lajedo do Tabocal",
          "UF":"BA",
          "latitude":-13.4663,
          "longitude":-40.2204
       },
       {
          "nome":"Lamarão",
          "UF":"BA",
          "latitude":-11.773,
          "longitude":-38.887
       },
       {
          "nome":"São Felipe",
          "UF":"BA",
          "latitude":-12.8394,
          "longitude":-39.0893
       },
       {
          "nome":"Laje",
          "UF":"BA",
          "latitude":-13.1673,
          "longitude":-39.4213
       },
       {
          "nome":"Pau Brasil",
          "UF":"BA",
          "latitude":-15.4572,
          "longitude":-39.6458
       },
       {
          "nome":"Miguel Calmon",
          "UF":"BA",
          "latitude":-11.4299,
          "longitude":-40.6031
       },
       {
          "nome":"Boa Vista do Tupim",
          "UF":"BA",
          "latitude":-12.6498,
          "longitude":-40.6064
       },
       {
          "nome":"Uibaí",
          "UF":"BA",
          "latitude":-11.3394,
          "longitude":-42.1354
       },
       {
          "nome":"Ribeira do Amparo",
          "UF":"BA",
          "latitude":-11.0421,
          "longitude":-38.4242
       },
       {
          "nome":"Barrocas",
          "UF":"BA",
          "latitude":-11.5272,
          "longitude":-39.0776
       },
       {
          "nome":"Barro Preto",
          "UF":"BA",
          "latitude":-14.7948,
          "longitude":-39.476
       },
       {
          "nome":"Santo Amaro",
          "UF":"BA",
          "latitude":-12.5472,
          "longitude":-38.7137
       },
       {
          "nome":"Piritiba",
          "UF":"BA",
          "latitude":-11.73,
          "longitude":-40.5587
       },
       {
          "nome":"Manoel Vitorino",
          "UF":"BA",
          "latitude":-14.1476,
          "longitude":-40.2399
       },
       {
          "nome":"Bom Jesus da Lapa",
          "UF":"BA",
          "latitude":-13.2506,
          "longitude":-43.4108
       },
       {
          "nome":"Boquira",
          "UF":"BA",
          "latitude":-12.8205,
          "longitude":-42.7324
       },
       {
          "nome":"Tucano",
          "UF":"BA",
          "latitude":-10.9584,
          "longitude":-38.7894
       },
       {
          "nome":"Marcionílio Souza",
          "UF":"BA",
          "latitude":-13.0064,
          "longitude":-40.5295
       },
       {
          "nome":"Mansidão",
          "UF":"BA",
          "latitude":-10.7227,
          "longitude":-44.0428
       },
       {
          "nome":"Santo Antônio de Jesus",
          "UF":"BA",
          "latitude":-12.9614,
          "longitude":-39.2584
       },
       {
          "nome":"Boninal",
          "UF":"BA",
          "latitude":-12.7069,
          "longitude":-41.8286
       },
       {
          "nome":"Piraí do Norte",
          "UF":"BA",
          "latitude":-13.759,
          "longitude":-39.3836
       },
       {
          "nome":"Bom Jesus da Serra",
          "UF":"BA",
          "latitude":-14.3663,
          "longitude":-40.5126
       },
       {
          "nome":"Maracás",
          "UF":"BA",
          "latitude":-13.4355,
          "longitude":-40.4323
       },
       {
          "nome":"Piripá",
          "UF":"BA",
          "latitude":-14.9444,
          "longitude":-41.7168
       },
       {
          "nome":"Ribeirão do Largo",
          "UF":"BA",
          "latitude":-15.4508,
          "longitude":-40.7441
       },
       {
          "nome":"Maragogipe",
          "UF":"BA",
          "latitude":-12.776,
          "longitude":-38.9175
       },
       {
          "nome":"Milagres",
          "UF":"BA",
          "latitude":-12.8646,
          "longitude":-39.8611
       },
       {
          "nome":"Maraú",
          "UF":"BA",
          "latitude":-14.1035,
          "longitude":-39.0137
       },
       {
          "nome":"Bonito",
          "UF":"BA",
          "latitude":-11.9668,
          "longitude":-41.2647
       },
       {
          "nome":"Tanhaçu",
          "UF":"BA",
          "latitude":-14.0197,
          "longitude":-41.2473
       },
       {
          "nome":"Central",
          "UF":"BA",
          "latitude":-11.1376,
          "longitude":-42.1116
       },
       {
          "nome":"Monte Santo",
          "UF":"BA",
          "latitude":-10.4374,
          "longitude":-39.3321
       },
       {
          "nome":"Teofilândia",
          "UF":"BA",
          "latitude":-11.4827,
          "longitude":-38.9913
       },
       {
          "nome":"Santa Teresinha",
          "UF":"BA",
          "latitude":-12.7697,
          "longitude":-39.5215
       },
       {
          "nome":"Capela do Alto Alegre",
          "UF":"BA",
          "latitude":-11.6658,
          "longitude":-39.8349
       },
       {
          "nome":"Capim Grosso",
          "UF":"BA",
          "latitude":-11.3797,
          "longitude":-40.0089
       },
       {
          "nome":"Santo Estêvão",
          "UF":"BA",
          "latitude":-12.428,
          "longitude":-39.2505
       },
       {
          "nome":"Licínio de Almeida",
          "UF":"BA",
          "latitude":-14.6842,
          "longitude":-42.5095
       },
       {
          "nome":"Teolândia",
          "UF":"BA",
          "latitude":-13.5896,
          "longitude":-39.484
       },
       {
          "nome":"Mirante",
          "UF":"BA",
          "latitude":-14.2385,
          "longitude":-40.7718
       },
       {
          "nome":"Candiba",
          "UF":"BA",
          "latitude":-14.4097,
          "longitude":-42.8667
       },
       {
          "nome":"Pedro Alexandre",
          "UF":"BA",
          "latitude":-10.012,
          "longitude":-37.8932
       },
       {
          "nome":"Livramento de Nossa Senhora",
          "UF":"BA",
          "latitude":-13.6369,
          "longitude":-41.8432
       },
       {
          "nome":"Caravelas",
          "UF":"BA",
          "latitude":-17.7268,
          "longitude":-39.2597
       },
       {
          "nome":"Candeal",
          "UF":"BA",
          "latitude":-11.8049,
          "longitude":-39.1203
       },
       {
          "nome":"Candeias",
          "UF":"BA",
          "latitude":-12.6716,
          "longitude":-38.5472
       },
       {
          "nome":"São Domingos",
          "UF":"BA",
          "latitude":-11.4649,
          "longitude":-39.5268
       },
       {
          "nome":"Santaluz",
          "UF":"BA",
          "latitude":-11.2508,
          "longitude":-39.375
       },
       {
          "nome":"Caraíbas",
          "UF":"BA",
          "latitude":-14.7177,
          "longitude":-41.2603
       },
       {
          "nome":"Cândido Sales",
          "UF":"BA",
          "latitude":-15.4993,
          "longitude":-41.2414
       },
       {
          "nome":"São Desidério",
          "UF":"BA",
          "latitude":-12.3572,
          "longitude":-44.9769
       },
       {
          "nome":"Lauro de Freitas",
          "UF":"BA",
          "latitude":-12.8978,
          "longitude":-38.321
       },
       {
          "nome":"Itambé",
          "UF":"BA",
          "latitude":-15.2429,
          "longitude":-40.63
       },
       {
          "nome":"Rio Real",
          "UF":"BA",
          "latitude":-11.4814,
          "longitude":-37.9332
       },
       {
          "nome":"Canavieiras",
          "UF":"BA",
          "latitude":-15.6722,
          "longitude":-38.9536
       },
       {
          "nome":"Teixeira de Freitas",
          "UF":"BA",
          "latitude":-17.5399,
          "longitude":-39.74
       },
       {
          "nome":"Luís Eduardo Magalhães",
          "UF":"BA",
          "latitude":-12.0956,
          "longitude":-45.7866
       },
       {
          "nome":"Cardeal da Silva",
          "UF":"BA",
          "latitude":-11.9472,
          "longitude":-37.9469
       },
       {
          "nome":"Paratinga",
          "UF":"BA",
          "latitude":-12.687,
          "longitude":-43.1798
       },
       {
          "nome":"Santa Rita de Cássia",
          "UF":"BA",
          "latitude":-11.0063,
          "longitude":-44.5255
       },
       {
          "nome":"São Félix do Coribe",
          "UF":"BA",
          "latitude":-13.4019,
          "longitude":-44.1837
       },
       {
          "nome":"Souto Soares",
          "UF":"BA",
          "latitude":-12.088,
          "longitude":-41.6427
       },
       {
          "nome":"Paripiranga",
          "UF":"BA",
          "latitude":-10.6859,
          "longitude":-37.8626
       },
       {
          "nome":"Jussara",
          "UF":"BA",
          "latitude":-11.0431,
          "longitude":-41.9702
       },
       {
          "nome":"Jussari",
          "UF":"BA",
          "latitude":-15.192,
          "longitude":-39.491
       },
       {
          "nome":"Cocos",
          "UF":"BA",
          "latitude":-14.1814,
          "longitude":-44.5352
       },
       {
          "nome":"Jussiape",
          "UF":"BA",
          "latitude":-13.5155,
          "longitude":-41.5882
       },
       {
          "nome":"Coaraci",
          "UF":"BA",
          "latitude":-14.637,
          "longitude":-39.5556
       },
       {
          "nome":"Cipó",
          "UF":"BA",
          "latitude":-11.1032,
          "longitude":-38.5179
       },
       {
          "nome":"Cícero Dantas",
          "UF":"BA",
          "latitude":-10.5897,
          "longitude":-38.3794
       },
       {
          "nome":"Chorrochó",
          "UF":"BA",
          "latitude":-8.9695,
          "longitude":-39.0979
       },
       {
          "nome":"Tabocas do Brejo Velho",
          "UF":"BA",
          "latitude":-12.7026,
          "longitude":-44.0075
       },
       {
          "nome":"Lafaiete Coutinho",
          "UF":"BA",
          "latitude":-13.6541,
          "longitude":-40.2119
       },
       {
          "nome":"São Félix",
          "UF":"BA",
          "latitude":-12.6104,
          "longitude":-38.9727
       },
       {
          "nome":"Pé de Serra",
          "UF":"BA",
          "latitude":-11.8313,
          "longitude":-39.611
       },
       {
          "nome":"Itaeté",
          "UF":"BA",
          "latitude":-12.9831,
          "longitude":-40.9677
       },
       {
          "nome":"Canudos",
          "UF":"BA",
          "latitude":-9.90014,
          "longitude":-39.1471
       },
       {
          "nome":"Lençóis",
          "UF":"BA",
          "latitude":-12.5616,
          "longitude":-41.3928
       },
       {
          "nome":"Cansanção",
          "UF":"BA",
          "latitude":-10.6647,
          "longitude":-39.4944
       },
       {
          "nome":"Teodoro Sampaio",
          "UF":"BA",
          "latitude":-12.295,
          "longitude":-38.6347
       },
       {
          "nome":"Pedrão",
          "UF":"BA",
          "latitude":-12.1491,
          "longitude":-38.6487
       },
       {
          "nome":"Matina",
          "UF":"BA",
          "latitude":-13.9109,
          "longitude":-42.8439
       },
       {
          "nome":"Planalto",
          "UF":"BA",
          "latitude":-14.6654,
          "longitude":-40.4718
       },
       {
          "nome":"Lajedinho",
          "UF":"BA",
          "latitude":-12.3529,
          "longitude":-40.9048
       },
       {
          "nome":"Mata de São João",
          "UF":"BA",
          "latitude":-12.5307,
          "longitude":-38.3009
       },
       {
          "nome":"Ibicaraí",
          "UF":"BA",
          "latitude":-14.8579,
          "longitude":-39.5914
       },
       {
          "nome":"Ibiassucê",
          "UF":"BA",
          "latitude":-14.2711,
          "longitude":-42.257
       },
       {
          "nome":"Itanagra",
          "UF":"BA",
          "latitude":-12.2614,
          "longitude":-38.0436
       },
       {
          "nome":"Nova Itarana",
          "UF":"BA",
          "latitude":-13.0241,
          "longitude":-40.0653
       },
       {
          "nome":"Iaçu",
          "UF":"BA",
          "latitude":-12.7666,
          "longitude":-40.2056
       },
       {
          "nome":"Itanhém",
          "UF":"BA",
          "latitude":-17.1642,
          "longitude":-40.3321
       },
       {
          "nome":"Heliópolis",
          "UF":"BA",
          "latitude":-10.6825,
          "longitude":-38.2907
       },
       {
          "nome":"Guanambi",
          "UF":"BA",
          "latitude":-14.2231,
          "longitude":-42.7799
       },
       {
          "nome":"São Miguel das Matas",
          "UF":"BA",
          "latitude":-13.0434,
          "longitude":-39.4578
       },
       {
          "nome":"Itapé",
          "UF":"BA",
          "latitude":-14.8876,
          "longitude":-39.4239
       },
       {
          "nome":"Ibicoara",
          "UF":"BA",
          "latitude":-13.4059,
          "longitude":-41.284
       },
       {
          "nome":"Itapebi",
          "UF":"BA",
          "latitude":-15.9551,
          "longitude":-39.5329
       },
       {
          "nome":"Nazaré",
          "UF":"BA",
          "latitude":-13.0235,
          "longitude":-39.0108
       },
       {
          "nome":"Itapetinga",
          "UF":"BA",
          "latitude":-15.2475,
          "longitude":-40.2482
       },
       {
          "nome":"Nova Redenção",
          "UF":"BA",
          "latitude":-12.815,
          "longitude":-41.0748
       },
       {
          "nome":"Itapicuru",
          "UF":"BA",
          "latitude":-11.3088,
          "longitude":-38.2262
       },
       {
          "nome":"Conceição do Jacuípe",
          "UF":"BA",
          "latitude":-12.3268,
          "longitude":-38.7684
       },
       {
          "nome":"Cordeiros",
          "UF":"BA",
          "latitude":-15.0356,
          "longitude":-41.9308
       },
       {
          "nome":"Conceição do Almeida",
          "UF":"BA",
          "latitude":-12.7836,
          "longitude":-39.1715
       },
       {
          "nome":"Tremedal",
          "UF":"BA",
          "latitude":-14.9736,
          "longitude":-41.4142
       },
       {
          "nome":"Mairi",
          "UF":"BA",
          "latitude":-11.7107,
          "longitude":-40.1437
       },
       {
          "nome":"Cachoeira",
          "UF":"BA",
          "latitude":-12.5994,
          "longitude":-38.9587
       },
       {
          "nome":"Guaratinga",
          "UF":"BA",
          "latitude":-16.5833,
          "longitude":-39.7847
       },
       {
          "nome":"Ibicuí",
          "UF":"BA",
          "latitude":-14.845,
          "longitude":-39.9879
       },
       {
          "nome":"Itaparica",
          "UF":"BA",
          "latitude":-12.8932,
          "longitude":-38.68
       },
       {
          "nome":"Guajeru",
          "UF":"BA",
          "latitude":-14.5467,
          "longitude":-41.9381
       },
       {
          "nome":"Santa Maria da Vitória",
          "UF":"BA",
          "latitude":-13.3859,
          "longitude":-44.2011
       },
       {
          "nome":"Ibipeba",
          "UF":"BA",
          "latitude":-11.6438,
          "longitude":-42.0195
       },
       {
          "nome":"Nova Viçosa",
          "UF":"BA",
          "latitude":-17.8926,
          "longitude":-39.3743
       },
       {
          "nome":"Santa Cruz Cabrália",
          "UF":"BA",
          "latitude":-16.2825,
          "longitude":-39.0295
       },
       {
          "nome":"Itapitanga",
          "UF":"BA",
          "latitude":-14.4139,
          "longitude":-39.5657
       },
       {
          "nome":"Planaltino",
          "UF":"BA",
          "latitude":-13.2618,
          "longitude":-40.3695
       },
       {
          "nome":"Governador Mangabeira",
          "UF":"BA",
          "latitude":-12.5994,
          "longitude":-39.0412
       },
       {
          "nome":"Gongogi",
          "UF":"BA",
          "latitude":-14.3195,
          "longitude":-39.469
       },
       {
          "nome":"Novo Horizonte",
          "UF":"BA",
          "latitude":-12.8083,
          "longitude":-42.1682
       },
       {
          "nome":"Glória",
          "UF":"BA",
          "latitude":-9.34382,
          "longitude":-38.2544
       },
       {
          "nome":"Itarantim",
          "UF":"BA",
          "latitude":-15.6528,
          "longitude":-40.065
       },
       {
          "nome":"Itatim",
          "UF":"BA",
          "latitude":-12.7099,
          "longitude":-39.6952
       },
       {
          "nome":"Mutuípe",
          "UF":"BA",
          "latitude":-13.2284,
          "longitude":-39.5044
       },
       {
          "nome":"Gentio do Ouro",
          "UF":"BA",
          "latitude":-11.4342,
          "longitude":-42.5077
       },
       {
          "nome":"Santa Brígida",
          "UF":"BA",
          "latitude":-9.73227,
          "longitude":-38.1209
       },
       {
          "nome":"Gavião",
          "UF":"BA",
          "latitude":-11.4688,
          "longitude":-39.7757
       },
       {
          "nome":"São Sebastião do Passé",
          "UF":"BA",
          "latitude":-12.5123,
          "longitude":-38.4905
       },
       {
          "nome":"Gandu",
          "UF":"BA",
          "latitude":-13.7441,
          "longitude":-39.4747
       },
       {
          "nome":"Muritiba",
          "UF":"BA",
          "latitude":-12.6329,
          "longitude":-38.9921
       },
       {
          "nome":"Novo Triunfo",
          "UF":"BA",
          "latitude":-10.3182,
          "longitude":-38.4014
       },
       {
          "nome":"Formosa do Rio Preto",
          "UF":"BA",
          "latitude":-11.0328,
          "longitude":-45.193
       },
       {
          "nome":"Santa Cruz da Vitória",
          "UF":"BA",
          "latitude":-14.964,
          "longitude":-39.8115
       },
       {
          "nome":"Nova Soure",
          "UF":"BA",
          "latitude":-11.2329,
          "longitude":-38.4871
       },
       {
          "nome":"Pilão Arcado",
          "UF":"BA",
          "latitude":-10.0051,
          "longitude":-42.4936
       },
       {
          "nome":"Cabaceiras do Paraguaçu",
          "UF":"BA",
          "latitude":-12.5317,
          "longitude":-39.1902
       },
       {
          "nome":"Itaquara",
          "UF":"BA",
          "latitude":-13.4459,
          "longitude":-39.9378
       },
       {
          "nome":"Malhada",
          "UF":"BA",
          "latitude":-14.3371,
          "longitude":-43.7686
       },
       {
          "nome":"Caldeirão Grande",
          "UF":"BA",
          "latitude":-11.0208,
          "longitude":-40.2956
       },
       {
          "nome":"Macururé",
          "UF":"BA",
          "latitude":-9.16226,
          "longitude":-39.0518
       },
       {
          "nome":"Cairu",
          "UF":"BA",
          "latitude":-13.4904,
          "longitude":-39.0465
       },
       {
          "nome":"Madre de Deus",
          "UF":"BA",
          "latitude":-12.7446,
          "longitude":-38.6153
       },
       {
          "nome":"Piatã",
          "UF":"BA",
          "latitude":-13.1465,
          "longitude":-41.7702
       },
       {
          "nome":"Cafarnaum",
          "UF":"BA",
          "latitude":-11.6914,
          "longitude":-41.4688
       },
       {
          "nome":"Caetité",
          "UF":"BA",
          "latitude":-14.0684,
          "longitude":-42.4861
       },
       {
          "nome":"Caetanos",
          "UF":"BA",
          "latitude":-14.3347,
          "longitude":-40.9175
       },
       {
          "nome":"Rio de Contas",
          "UF":"BA",
          "latitude":-13.5852,
          "longitude":-41.8048
       },
       {
          "nome":"Botuporã",
          "UF":"BA",
          "latitude":-13.3772,
          "longitude":-42.5163
       },
       {
          "nome":"Maetinga",
          "UF":"BA",
          "latitude":-14.6623,
          "longitude":-41.4915
       },
       {
          "nome":"Canápolis",
          "UF":"BA",
          "latitude":-13.0725,
          "longitude":-44.201
       },
       {
          "nome":"Santanópolis",
          "UF":"BA",
          "latitude":-12.0311,
          "longitude":-38.8694
       },
       {
          "nome":"Medeiros Neto",
          "UF":"BA",
          "latitude":-17.3707,
          "longitude":-40.2238
       },
       {
          "nome":"Uauá",
          "UF":"BA",
          "latitude":-9.83325,
          "longitude":-39.4794
       },
       {
          "nome":"Ubaíra",
          "UF":"BA",
          "latitude":-13.2714,
          "longitude":-39.666
       },
       {
          "nome":"Ubaitaba",
          "UF":"BA",
          "latitude":-14.303,
          "longitude":-39.3222
       },
       {
          "nome":"Ribeira do Pombal",
          "UF":"BA",
          "latitude":-10.8373,
          "longitude":-38.5382
       },
       {
          "nome":"Mascote",
          "UF":"BA",
          "latitude":-15.5542,
          "longitude":-39.3016
       },
       {
          "nome":"Ubatã",
          "UF":"BA",
          "latitude":-14.2063,
          "longitude":-39.5207
       },
       {
          "nome":"Biritinga",
          "UF":"BA",
          "latitude":-11.6072,
          "longitude":-38.8051
       },
       {
          "nome":"Caatiba",
          "UF":"BA",
          "latitude":-14.9699,
          "longitude":-40.4092
       },
       {
          "nome":"Belmonte",
          "UF":"BA",
          "latitude":-15.8608,
          "longitude":-38.8758
       },
       {
          "nome":"Camacan",
          "UF":"BA",
          "latitude":-15.4142,
          "longitude":-39.4919
       },
       {
          "nome":"Belo Campo",
          "UF":"BA",
          "latitude":-15.0334,
          "longitude":-41.2652
       },
       {
          "nome":"Conceição da Feira",
          "UF":"BA",
          "latitude":-12.5078,
          "longitude":-38.9978
       },
       {
          "nome":"Camamu",
          "UF":"BA",
          "latitude":-13.9398,
          "longitude":-39.1071
       },
       {
          "nome":"Buritirama",
          "UF":"BA",
          "latitude":-10.7171,
          "longitude":-43.6302
       },
       {
          "nome":"Caculé",
          "UF":"BA",
          "latitude":-14.5003,
          "longitude":-42.2229
       },
       {
          "nome":"Pindaí",
          "UF":"BA",
          "latitude":-14.4921,
          "longitude":-42.686
       },
       {
          "nome":"Rio do Pires",
          "UF":"BA",
          "latitude":-13.1185,
          "longitude":-42.2902
       },
       {
          "nome":"Brumado",
          "UF":"BA",
          "latitude":-14.2021,
          "longitude":-41.6696
       },
       {
          "nome":"Brotas de Macaúbas",
          "UF":"BA",
          "latitude":-11.9915,
          "longitude":-42.6326
       },
       {
          "nome":"Brejolândia",
          "UF":"BA",
          "latitude":-12.4815,
          "longitude":-43.9679
       },
       {
          "nome":"Brejões",
          "UF":"BA",
          "latitude":-13.1039,
          "longitude":-39.7988
       },
       {
          "nome":"Pindobaçu",
          "UF":"BA",
          "latitude":-10.7433,
          "longitude":-40.3675
       },
       {
          "nome":"Buerarema",
          "UF":"BA",
          "latitude":-14.9595,
          "longitude":-39.3028
       },
       {
          "nome":"Maiquinique",
          "UF":"BA",
          "latitude":-15.624,
          "longitude":-40.2587
       },
       {
          "nome":"Santana",
          "UF":"BA",
          "latitude":-12.9792,
          "longitude":-44.0506
       },
       {
          "nome":"Rio do Antônio",
          "UF":"BA",
          "latitude":-14.4071,
          "longitude":-42.0721
       },
       {
          "nome":"Macarani",
          "UF":"BA",
          "latitude":-15.5646,
          "longitude":-40.4209
       },
       {
          "nome":"Campo Alegre de Lourdes",
          "UF":"BA",
          "latitude":-9.52221,
          "longitude":-43.0126
       },
       {
          "nome":"Campo Formoso",
          "UF":"BA",
          "latitude":-10.5105,
          "longitude":-40.32
       },
       {
          "nome":"Malhada de Pedras",
          "UF":"BA",
          "latitude":-14.3847,
          "longitude":-41.8842
       },
       {
          "nome":"Mirangaba",
          "UF":"BA",
          "latitude":-10.961,
          "longitude":-40.574
       },
       {
          "nome":"Terra Nova",
          "UF":"BA",
          "latitude":-12.3888,
          "longitude":-38.6238
       },
       {
          "nome":"Camaçari",
          "UF":"BA",
          "latitude":-12.6996,
          "longitude":-38.3263
       },
       {
          "nome":"Pintadas",
          "UF":"BA",
          "latitude":-11.8117,
          "longitude":-39.9009
       },
       {
          "nome":"Caém",
          "UF":"BA",
          "latitude":-11.0677,
          "longitude":-40.432
       }
    ],
    "CE":[
       {
          "nome":"Itatira",
          "UF":"CE",
          "latitude":-4.52608,
          "longitude":-39.6202
       },
       {
          "nome":"Groaíras",
          "UF":"CE",
          "latitude":-3.91787,
          "longitude":-40.3852
       },
       {
          "nome":"Carnaubal",
          "UF":"CE",
          "latitude":-4.15985,
          "longitude":-40.9413
       },
       {
          "nome":"Itarema",
          "UF":"CE",
          "latitude":-2.9248,
          "longitude":-39.9167
       },
       {
          "nome":"Guaraciaba do Norte",
          "UF":"CE",
          "latitude":-4.15814,
          "longitude":-40.7476
       },
       {
          "nome":"Tamboril",
          "UF":"CE",
          "latitude":-4.83136,
          "longitude":-40.3196
       },
       {
          "nome":"Arneiroz",
          "UF":"CE",
          "latitude":-6.3165,
          "longitude":-40.1653
       },
       {
          "nome":"Cedro",
          "UF":"CE",
          "latitude":-6.60034,
          "longitude":-39.0609
       },
       {
          "nome":"Poranga",
          "UF":"CE",
          "latitude":-4.74672,
          "longitude":-40.9205
       },
       {
          "nome":"Nova Russas",
          "UF":"CE",
          "latitude":-4.70581,
          "longitude":-40.5621
       },
       {
          "nome":"Deputado Irapuan Pinheiro",
          "UF":"CE",
          "latitude":-5.91485,
          "longitude":-39.257
       },
       {
          "nome":"Itapajé",
          "UF":"CE",
          "latitude":-3.68314,
          "longitude":-39.5855
       },
       {
          "nome":"Itaitinga",
          "UF":"CE",
          "latitude":-3.96577,
          "longitude":-38.5298
       },
       {
          "nome":"Catarina",
          "UF":"CE",
          "latitude":-6.12291,
          "longitude":-39.8736
       },
       {
          "nome":"Redenção",
          "UF":"CE",
          "latitude":-4.21587,
          "longitude":-38.7277
       },
       {
          "nome":"São João do Jaguaribe",
          "UF":"CE",
          "latitude":-5.27516,
          "longitude":-38.2694
       },
       {
          "nome":"Itapipoca",
          "UF":"CE",
          "latitude":-3.49933,
          "longitude":-39.5836
       },
       {
          "nome":"São Gonçalo do Amarante",
          "UF":"CE",
          "latitude":-3.60515,
          "longitude":-38.9726
       },
       {
          "nome":"Itapiúna",
          "UF":"CE",
          "latitude":-4.55516,
          "longitude":-38.9281
       },
       {
          "nome":"Caucaia",
          "UF":"CE",
          "latitude":-3.72797,
          "longitude":-38.6619
       },
       {
          "nome":"Catunda",
          "UF":"CE",
          "latitude":-4.64336,
          "longitude":-40.2
       },
       {
          "nome":"Cariús",
          "UF":"CE",
          "latitude":-6.52428,
          "longitude":-39.4916
       },
       {
          "nome":"Quixeramobim",
          "UF":"CE",
          "latitude":-5.19067,
          "longitude":-39.2889
       },
       {
          "nome":"Iguatu",
          "UF":"CE",
          "latitude":-6.36281,
          "longitude":-39.2892
       },
       {
          "nome":"Guaiúba",
          "UF":"CE",
          "latitude":-4.04057,
          "longitude":-38.6404
       },
       {
          "nome":"Croatá",
          "UF":"CE",
          "latitude":-4.40481,
          "longitude":-40.9022
       },
       {
          "nome":"Icó",
          "UF":"CE",
          "latitude":-6.39627,
          "longitude":-38.8554
       },
       {
          "nome":"Jaguaretama",
          "UF":"CE",
          "latitude":-5.6051,
          "longitude":-38.7639
       },
       {
          "nome":"Guaramiranga",
          "UF":"CE",
          "latitude":-4.26248,
          "longitude":-38.932
       },
       {
          "nome":"Várzea Alegre",
          "UF":"CE",
          "latitude":-6.78264,
          "longitude":-39.2942
       },
       {
          "nome":"Granjeiro",
          "UF":"CE",
          "latitude":-6.88134,
          "longitude":-39.2144
       },
       {
          "nome":"Granja",
          "UF":"CE",
          "latitude":-3.12788,
          "longitude":-40.8372
       },
       {
          "nome":"Mulungu",
          "UF":"CE",
          "latitude":-4.30294,
          "longitude":-38.9951
       },
       {
          "nome":"Potiretama",
          "UF":"CE",
          "latitude":-5.71287,
          "longitude":-38.1578
       },
       {
          "nome":"Quixeré",
          "UF":"CE",
          "latitude":-5.07148,
          "longitude":-37.9802
       },
       {
          "nome":"Caririaçu",
          "UF":"CE",
          "latitude":-7.02808,
          "longitude":-39.2828
       },
       {
          "nome":"Ocara",
          "UF":"CE",
          "latitude":-4.48523,
          "longitude":-38.5933
       },
       {
          "nome":"Caridade",
          "UF":"CE",
          "latitude":-4.22514,
          "longitude":-39.1912
       },
       {
          "nome":"Assaré",
          "UF":"CE",
          "latitude":-6.8669,
          "longitude":-39.8689
       },
       {
          "nome":"Graça",
          "UF":"CE",
          "latitude":-4.04422,
          "longitude":-40.749
       },
       {
          "nome":"Palmácia",
          "UF":"CE",
          "latitude":-4.13831,
          "longitude":-38.8446
       },
       {
          "nome":"Pedra Branca",
          "UF":"CE",
          "latitude":-5.45341,
          "longitude":-39.7078
       },
       {
          "nome":"Tarrafas",
          "UF":"CE",
          "latitude":-6.67838,
          "longitude":-39.753
       },
       {
          "nome":"Altaneira",
          "UF":"CE",
          "latitude":-6.99837,
          "longitude":-39.7356
       },
       {
          "nome":"Cascavel",
          "UF":"CE",
          "latitude":-4.12967,
          "longitude":-38.2412
       },
       {
          "nome":"Fortaleza",
          "UF":"CE",
          "latitude":-3.71664,
          "longitude":-38.5423
       },
       {
          "nome":"Pindoretama",
          "UF":"CE",
          "latitude":-4.01584,
          "longitude":-38.3061
       },
       {
          "nome":"Barreira",
          "UF":"CE",
          "latitude":-4.28921,
          "longitude":-38.6429
       },
       {
          "nome":"Umari",
          "UF":"CE",
          "latitude":-6.63893,
          "longitude":-38.7008
       },
       {
          "nome":"Quiterianópolis",
          "UF":"CE",
          "latitude":-5.8425,
          "longitude":-40.7002
       },
       {
          "nome":"Bela Cruz",
          "UF":"CE",
          "latitude":-3.04996,
          "longitude":-40.1671
       },
       {
          "nome":"Abaiara",
          "UF":"CE",
          "latitude":-7.34588,
          "longitude":-39.0416
       },
       {
          "nome":"Maranguape",
          "UF":"CE",
          "latitude":-3.89143,
          "longitude":-38.6829
       },
       {
          "nome":"Barbalha",
          "UF":"CE",
          "latitude":-7.2982,
          "longitude":-39.3021
       },
       {
          "nome":"Ubajara",
          "UF":"CE",
          "latitude":-3.85448,
          "longitude":-40.9204
       },
       {
          "nome":"Tururu",
          "UF":"CE",
          "latitude":-3.58413,
          "longitude":-39.4297
       },
       {
          "nome":"Missão Velha",
          "UF":"CE",
          "latitude":-7.23522,
          "longitude":-39.143
       },
       {
          "nome":"Acaraú",
          "UF":"CE",
          "latitude":-2.88769,
          "longitude":-40.1183
       },
       {
          "nome":"Barro",
          "UF":"CE",
          "latitude":-7.17188,
          "longitude":-38.7741
       },
       {
          "nome":"Martinópole",
          "UF":"CE",
          "latitude":-3.2252,
          "longitude":-40.6896
       },
       {
          "nome":"Meruoca",
          "UF":"CE",
          "latitude":-3.53974,
          "longitude":-40.4531
       },
       {
          "nome":"Santana do Cariri",
          "UF":"CE",
          "latitude":-7.17613,
          "longitude":-39.7302
       },
       {
          "nome":"Aquiraz",
          "UF":"CE",
          "latitude":-3.89929,
          "longitude":-38.3896
       },
       {
          "nome":"Aracati",
          "UF":"CE",
          "latitude":-4.55826,
          "longitude":-37.7679
       },
       {
          "nome":"Santana do Acaraú",
          "UF":"CE",
          "latitude":-3.46144,
          "longitude":-40.2118
       },
       {
          "nome":"Coreaú",
          "UF":"CE",
          "latitude":-3.5415,
          "longitude":-40.6587
       },
       {
          "nome":"Eusébio",
          "UF":"CE",
          "latitude":-3.8925,
          "longitude":-38.4559
       },
       {
          "nome":"Fortim",
          "UF":"CE",
          "latitude":-4.45126,
          "longitude":-37.7981
       },
       {
          "nome":"Apuiarés",
          "UF":"CE",
          "latitude":-3.94506,
          "longitude":-39.4359
       },
       {
          "nome":"Miraíma",
          "UF":"CE",
          "latitude":-3.56867,
          "longitude":-39.9663
       },
       {
          "nome":"Ararendá",
          "UF":"CE",
          "latitude":-4.74567,
          "longitude":-40.831
       },
       {
          "nome":"Maracanaú",
          "UF":"CE",
          "latitude":-3.86699,
          "longitude":-38.6259
       },
       {
          "nome":"Mauriti",
          "UF":"CE",
          "latitude":-7.38597,
          "longitude":-38.7708
       },
       {
          "nome":"Umirim",
          "UF":"CE",
          "latitude":-3.67654,
          "longitude":-39.3465
       },
       {
          "nome":"Boa Viagem",
          "UF":"CE",
          "latitude":-5.11258,
          "longitude":-39.7337
       },
       {
          "nome":"Massapê",
          "UF":"CE",
          "latitude":-3.52364,
          "longitude":-40.3423
       },
       {
          "nome":"Forquilha",
          "UF":"CE",
          "latitude":-3.79945,
          "longitude":-40.2634
       },
       {
          "nome":"Milagres",
          "UF":"CE",
          "latitude":-7.29749,
          "longitude":-38.9378
       },
       {
          "nome":"Barroquinha",
          "UF":"CE",
          "latitude":-3.02051,
          "longitude":-41.1358
       },
       {
          "nome":"Varjota",
          "UF":"CE",
          "latitude":-4.19387,
          "longitude":-40.4741
       },
       {
          "nome":"Piquet Carneiro",
          "UF":"CE",
          "latitude":-5.80025,
          "longitude":-39.417
       },
       {
          "nome":"Marco",
          "UF":"CE",
          "latitude":-3.1285,
          "longitude":-40.1582
       },
       {
          "nome":"Pires Ferreira",
          "UF":"CE",
          "latitude":-4.23922,
          "longitude":-40.6442
       },
       {
          "nome":"Acarape",
          "UF":"CE",
          "latitude":-4.22083,
          "longitude":-38.7055
       },
       {
          "nome":"Milhã",
          "UF":"CE",
          "latitude":-5.67252,
          "longitude":-39.1875
       },
       {
          "nome":"Acopiara",
          "UF":"CE",
          "latitude":-6.08911,
          "longitude":-39.448
       },
       {
          "nome":"Orós",
          "UF":"CE",
          "latitude":-6.25182,
          "longitude":-38.9053
       },
       {
          "nome":"Beberibe",
          "UF":"CE",
          "latitude":-4.17741,
          "longitude":-38.1271
       },
       {
          "nome":"Madalena",
          "UF":"CE",
          "latitude":-4.84601,
          "longitude":-39.5725
       },
       {
          "nome":"Baturité",
          "UF":"CE",
          "latitude":-4.32598,
          "longitude":-38.8812
       },
       {
          "nome":"Farias Brito",
          "UF":"CE",
          "latitude":-6.92146,
          "longitude":-39.5651
       },
       {
          "nome":"Amontada",
          "UF":"CE",
          "latitude":-3.36017,
          "longitude":-39.8288
       },
       {
          "nome":"Morrinhos",
          "UF":"CE",
          "latitude":-3.23426,
          "longitude":-40.1233
       },
       {
          "nome":"Paramoti",
          "UF":"CE",
          "latitude":-4.08815,
          "longitude":-39.2417
       },
       {
          "nome":"Lavras da Mangabeira",
          "UF":"CE",
          "latitude":-6.7448,
          "longitude":-38.9706
       },
       {
          "nome":"Sobral",
          "UF":"CE",
          "latitude":-3.68913,
          "longitude":-40.3482
       },
       {
          "nome":"Mombaça",
          "UF":"CE",
          "latitude":-5.73844,
          "longitude":-39.63
       },
       {
          "nome":"Senador Pompeu",
          "UF":"CE",
          "latitude":-5.58244,
          "longitude":-39.3704
       },
       {
          "nome":"Limoeiro do Norte",
          "UF":"CE",
          "latitude":-5.14392,
          "longitude":-38.0847
       },
       {
          "nome":"Ererê",
          "UF":"CE",
          "latitude":-6.02751,
          "longitude":-38.3461
       },
       {
          "nome":"Aracoiaba",
          "UF":"CE",
          "latitude":-4.36872,
          "longitude":-38.8125
       },
       {
          "nome":"Brejo Santo",
          "UF":"CE",
          "latitude":-7.48469,
          "longitude":-38.9799
       },
       {
          "nome":"São Benedito",
          "UF":"CE",
          "latitude":-4.04713,
          "longitude":-40.8596
       },
       {
          "nome":"Quixadá",
          "UF":"CE",
          "latitude":-4.9663,
          "longitude":-39.0155
       },
       {
          "nome":"Pacoti",
          "UF":"CE",
          "latitude":-4.22492,
          "longitude":-38.922
       },
       {
          "nome":"Pacujá",
          "UF":"CE",
          "latitude":-3.98327,
          "longitude":-40.6989
       },
       {
          "nome":"Uruburetama",
          "UF":"CE",
          "latitude":-3.62316,
          "longitude":-39.5107
       },
       {
          "nome":"Uruoca",
          "UF":"CE",
          "latitude":-3.30819,
          "longitude":-40.5628
       },
       {
          "nome":"Pentecoste",
          "UF":"CE",
          "latitude":-3.79274,
          "longitude":-39.2692
       },
       {
          "nome":"Tianguá",
          "UF":"CE",
          "latitude":-3.72965,
          "longitude":-40.9923
       },
       {
          "nome":"General Sampaio",
          "UF":"CE",
          "latitude":-4.04351,
          "longitude":-39.454
       },
       {
          "nome":"Antonina do Norte",
          "UF":"CE",
          "latitude":-6.76919,
          "longitude":-39.987
       },
       {
          "nome":"Potengi",
          "UF":"CE",
          "latitude":-7.09154,
          "longitude":-40.0233
       },
       {
          "nome":"Banabuiú",
          "UF":"CE",
          "latitude":-5.30454,
          "longitude":-38.9132
       },
       {
          "nome":"Camocim",
          "UF":"CE",
          "latitude":-2.9005,
          "longitude":-40.8544
       },
       {
          "nome":"Pacajus",
          "UF":"CE",
          "latitude":-4.17107,
          "longitude":-38.465
       },
       {
          "nome":"Frecheirinha",
          "UF":"CE",
          "latitude":-3.75557,
          "longitude":-40.818
       },
       {
          "nome":"Mucambo",
          "UF":"CE",
          "latitude":-3.90271,
          "longitude":-40.7452
       },
       {
          "nome":"Tejuçuoca",
          "UF":"CE",
          "latitude":-3.98831,
          "longitude":-39.5799
       },
       {
          "nome":"Jijoca de Jericoacoara",
          "UF":"CE",
          "latitude":-2.79331,
          "longitude":-40.5127
       },
       {
          "nome":"Moraújo",
          "UF":"CE",
          "latitude":-3.46311,
          "longitude":-40.6776
       },
       {
          "nome":"Quixelô",
          "UF":"CE",
          "latitude":-6.24637,
          "longitude":-39.2011
       },
       {
          "nome":"Jardim",
          "UF":"CE",
          "latitude":-7.57599,
          "longitude":-39.2826
       },
       {
          "nome":"Jaguaribara",
          "UF":"CE",
          "latitude":-5.67765,
          "longitude":-38.5359
       },
       {
          "nome":"Palhano",
          "UF":"CE",
          "latitude":-4.73672,
          "longitude":-37.9655
       },
       {
          "nome":"Jaguaruana",
          "UF":"CE",
          "latitude":-4.83151,
          "longitude":-37.781
       },
       {
          "nome":"Canindé",
          "UF":"CE",
          "latitude":-4.35162,
          "longitude":-39.3155
       },
       {
          "nome":"Santa Quitéria",
          "UF":"CE",
          "latitude":-4.32608,
          "longitude":-40.1523
       },
       {
          "nome":"Aurora",
          "UF":"CE",
          "latitude":-6.93349,
          "longitude":-38.9742
       },
       {
          "nome":"Jaguaribe",
          "UF":"CE",
          "latitude":-5.90213,
          "longitude":-38.6227
       },
       {
          "nome":"Crato",
          "UF":"CE",
          "latitude":-7.2153,
          "longitude":-39.4103
       },