[{"nome": "Mâncio Lima", "UF": "Acre", "latitude": -7.61657, "longitude": -72.8997}, {"nome": "Marechal Thaumaturgo", "UF": "Acre", "latitude": -8.93898, "longitude": -72.7997}, {"nome": "Feijó", "UF": "Acre", "latitude": -8.17054, "longitude": -70.351}, {"nome": "Tarauacá", "UF": "Acre", "latitude": -8.15697, "longitude": -70.7722}, {"nome": "Capixaba", "UF": "Acre", "latitude": -10.566, "longitude": -67.686}, {"nome": "Santa Rosa do Purus", "UF": "Acre", "latitude": -9.44652, "longitude": -70.4902}, {"nome": "Rodrigues Alves", "UF": "Acre", "latitude": -7.73864, "longitude": -72.661}, {"nome": "Porto Walter", "UF": "Acre", "latitude": -8.26323, "longitude": -72.7537}, {"nome": "Epitaciolândia", "UF": "Acre", "latitude": -11.0188, "longitude": -68.7341}, {"nome": "Sena Madureira", "UF": "Acre", "latitude": -9.06596, "longitude": -68.6571}, {"nome": "Senador Guiomard", "UF": "Acre", "latitude": -10.1497, "longitude": -67.7362}, {"nome": "Plácido de Castro", "UF": "Acre", "latitude": -10.2806, "longitude": -67.1371}, {"nome": "Rio Branco", "UF": "Acre", "latitude": -9.97499, "longitude": -67.8243}, {"nome": "Porto Acre", "UF": "Acre", "latitude": -9.58138, "longitude": -67.5478}, {"nome": "Xapuri", "UF": "Acre", "latitude": -10.6516, "longitude": -68.4969}, {"nome": "Manoel Urbano", "UF": "Acre", "latitude": -8.83291, "longitude": -69.2679}, {"nome": "Cruzeiro do Sul", "UF": "Acre", "latitude": -7.62762, "longitude": -72.6756}, {"nome": "Assis Brasil", "UF": "Acre", "latitude": -10.9298, "longitude": -69.5738}, {"nome": "Brasiléia", "UF": "Acre", "latitude": -10.995, "longitude": -68.7497}, {"nome": "Bujari", "UF": "Acre", "latitude": -9.81528, "longitude": -67.955}, {"nome": "Jordão", "UF": "Acre", "latitude": -9.43091, "longitude": -71.8974}, {"nome": "Acrelândia", "UF": "Acre", "latitude": -9.82581, "longitude": -66.8972}, {"nome": "São José da Tapera", "UF": "Alagoas", "latitude": -9.55768, "longitude": -37.3831}, {"nome": "Maribondo", "UF": "Alagoas", "latitude": -9.58353, "longitude": -36.3045}, {"nome": "Poço das Trincheiras", "UF": "Alagoas", "latitude": -9.30742, "longitude": -37.2889}, {"nome": "São José da Laje", "UF": "Alagoas", "latitude": -9.01278, "longitude": -36.0515}, {"nome": "Batalha", "UF": "Alagoas", "latitude": -9.6742, "longitude": -37.133}, {"nome": "Santana do Ipanema", "UF": "Alagoas", "latitude": -9.36999, "longitude": -37.248}, {"nome": "Belém", "UF": "Alagoas", "latitude": -9.57047, "longitude": -36.4904}, {"nome": "Mata Grande", "UF": "Alagoas", "latitude": -9.11824, "longitude": -37.7323}, {"nome": "Marechal Deodoro", "UF": "Alagoas", "latitude": -9.70971, "longitude": -35.8967}, {"nome": "Belo Monte", "UF": "Alagoas", "latitude": -9.82272, "longitude": -37.277}, {"nome": "Messias", "UF": "Alagoas", "latitude": -9.39384, "longitude": -35.8392}, {"nome": "Minador do Negrão", "UF": "Alagoas", "latitude": -9.31236, "longitude": -36.8696}, {"nome": "Igreja Nova", "UF": "Alagoas", "latitude": -10.1235, "longitude": -36.6597}, {"nome": "Barra de Santo Antônio", "UF": "Alagoas", "latitude": -9.4023, "longitude": -35.5101}, {"nome": "Boca da Mata", "UF": "Alagoas", "latitude": -9.64308, "longitude": -36.2125}, {"nome": "Maragogi", "UF": "Alagoas", "latitude": -9.00744, "longitude": -35.2267}, {"nome": "Piranhas", "UF": "Alagoas", "latitude": -9.624, "longitude": -37.757}, {"nome": "União dos Palmares", "UF": "Alagoas", "latitude": -9.15921, "longitude": -36.0223}, {"nome": "Inhapi", "UF": "Alagoas", "latitude": -9.22594, "longitude": -37.7509}, {"nome": "Mar Vermelho", "UF": "Alagoas", "latitude": -9.44739, "longitude": -36.3881}, {"nome": "Quebrangulo", "UF": "Alagoas", "latitude": -9.32001, "longitude": -36.4692}, {"nome": "Santana do Mundaú", "UF": "Alagoas", "latitude": -9.17141, "longitude": -36.2176}, {"nome": "Maravilha", "UF": "Alagoas", "latitude": -9.23045, "longitude": -37.3524}, {"nome": "Barra de São Miguel", "UF": "Alagoas", "latitude": -9.83842, "longitude": -35.9057}, {"nome": "Teotônio Vilela", "UF": "Alagoas", "latitude": -9.91656, "longitude": -36.3492}, {"nome": "Pilar", "UF": "Alagoas", "latitude": -9.60135, "longitude": -35.9543}, {"nome": "Cajueiro", "UF": "Alagoas", "latitude": -9.3994, "longitude": -36.1559}, {"nome": "Penedo", "UF": "Alagoas", "latitude": -10.2874, "longitude": -36.5819}, {"nome": "Água Branca", "UF": "Alagoas", "latitude": -9.262, "longitude": -37.938}, {"nome": "Piaçabuçu", "UF": "Alagoas", "latitude": -10.406, "longitude": -36.434}, {"nome": "Rio Largo", "UF": "Alagoas", "latitude": -9.47783, "longitude": -35.8394}, {"nome": "Anadia", "UF": "Alagoas", "latitude": -9.68489, "longitude": -36.3078}, {"nome": "Campestre", "UF": "Alagoas", "latitude": -8.84723, "longitude": -35.5685}, {"nome": "Igaci", "UF": "Alagoas", "latitude": -9.53768, "longitude": -36.6372}, {"nome": "Maceió", "UF": "Alagoas", "latitude": -9.66599, "longitude": -35.735}, {"nome": "Canapi", "UF": "Alagoas", "latitude": -9.11932, "longitude": -37.5967}, {"nome": "Major Isidoro", "UF": "Alagoas", "latitude": -9.53009, "longitude": -36.992}, {"nome": "Campo Alegre", "UF": "Alagoas", "latitude": -9.78451, "longitude": -36.3525}, {"nome": "Traipu", "UF": "Alagoas", "latitude": -9.96262, "longitude": -37.0071}, {"nome": "Pindoba", "UF": "Alagoas", "latitude": -9.47382, "longitude": -36.2918}, {"nome": "Ibateguara", "UF": "Alagoas", "latitude": -8.97823, "longitude": -35.9373}, {"nome": "São Luís do Quitunde", "UF": "Alagoas", "latitude": -9.31816, "longitude": -35.5606}, {"nome": "Santa Luzia do Norte", "UF": "Alagoas", "latitude": -9.6037, "longitude": -35.8232}, {"nome": "Limoeiro de Anadia", "UF": "Alagoas", "latitude": -9.74098, "longitude": -36.5121}, {"nome": "Capela", "UF": "Alagoas", "latitude": -9.41504, "longitude": -36.0826}, {"nome": "São Brás", "UF": "Alagoas", "latitude": -10.1141, "longitude": -36.8522}, {"nome": "Olho d'Água Grande", "UF": "Alagoas", "latitude": -10.0572, "longitude": -36.8101}, {"nome": "Cacimbinhas", "UF": "Alagoas", "latitude": -9.40121, "longitude": -36.9911}, {"nome": "Campo Grande", "UF": "Alagoas", "latitude": -9.95542, "longitude": -36.7926}, {"nome": "Viçosa", "UF": "Alagoas", "latitude": -9.36763, "longitude": -36.2431}, {"nome": "Branquinha", "UF": "Alagoas", "latitude": -9.23342, "longitude": -36.0162}, {"nome": "Olho d'Água do Casado", "UF": "Alagoas", "latitude": -9.50357, "longitude": -37.8301}, {"nome": "Flexeiras", "UF": "Alagoas", "latitude": -9.27281, "longitude": -35.7139}, {"nome": "Porto Calvo", "UF": "Alagoas", "latitude": -9.05195, "longitude": -35.3987}, {"nome": "Matriz de Camaragibe", "UF": "Alagoas", "latitude": -9.15437, "longitude": -35.5243}, {"nome": "Coruripe", "UF": "Alagoas", "latitude": -10.1276, "longitude": -36.1717}, {"nome": "Paulo Jacinto", "UF": "Alagoas", "latitude": -9.36792, "longitude": -36.3672}, {"nome": "Tanque d'Arca", "UF": "Alagoas", "latitude": -9.53379, "longitude": -36.4366}, {"nome": "Passo de Camaragibe", "UF": "Alagoas", "latitude": -9.24511, "longitude": -35.4745}, {"nome": "Chã Preta", "UF": "Alagoas", "latitude": -9.2556, "longitude": -36.2983}, {"nome": "Paripueira", "UF": "Alagoas", "latitude": -9.46313, "longitude": -35.552}, {"nome": "Joaquim Gomes", "UF": "Alagoas", "latitude": -9.1328, "longitude": -35.7474}, {"nome": "Coité do Nóia", "UF": "Alagoas", "latitude": -9.63348, "longitude": -36.5845}, {"nome": "Girau do Ponciano", "UF": "Alagoas", "latitude": -9.88404, "longitude": -36.8316}, {"nome": "Atalaia", "UF": "Alagoas", "latitude": -9.5119, "longitude": -36.0086}, {"nome": "Junqueiro", "UF": "Alagoas", "latitude": -9.90696, "longitude": -36.4803}, {"nome": "Jundiá", "UF": "Alagoas", "latitude": -8.93297, "longitude": -35.5669}, {"nome": "Carneiros", "UF": "Alagoas", "latitude": -9.48476, "longitude": -37.3773}, {"nome": "Colônia Leopoldina", "UF": "Alagoas", "latitude": -8.91806, "longitude": -35.7214}, {"nome": "Coqueiro Seco", "UF": "Alagoas", "latitude": -9.63715, "longitude": -35.7994}, {"nome": "Roteiro", "UF": "Alagoas", "latitude": -9.83503, "longitude": -35.9782}, {"nome": "São Miguel dos Milagres", "UF": "Alagoas", "latitude": -9.26493, "longitude": -35.3763}, {"nome": "Monteirópolis", "UF": "Alagoas", "latitude": -9.60357, "longitude": -37.2505}, {"nome": "São Miguel dos Campos", "UF": "Alagoas", "latitude": -9.78301, "longitude": -36.0971}, {"nome": "Lagoa da Canoa", "UF": "Alagoas", "latitude": -9.83291, "longitude": -36.7413}, {"nome": "Murici", "UF": "Alagoas", "latitude": -9.30682, "longitude": -35.9428}, {"nome": "Olivença", "UF": "Alagoas", "latitude": -9.51954, "longitude": -37.1954}, {"nome": "Pariconha", "UF": "Alagoas", "latitude": -9.25634, "longitude": -37.9988}, {"nome": "Feira Grande", "UF": "Alagoas", "latitude": -9.89859, "longitude": -36.6815}, {"nome": "Feliz Deserto", "UF": "Alagoas", "latitude": -10.2935, "longitude": -36.3028}, {"nome": "Taquarana", "UF": "Alagoas", "latitude": -9.64529, "longitude": -36.4928}, {"nome": "Craíbas", "UF": "Alagoas", "latitude": -9.6178, "longitude": -36.7697}, {"nome": "Novo Lino", "UF": "Alagoas", "latitude": -8.94191, "longitude": -35.664}, {"nome": "Pão de Açúcar", "UF": "Alagoas", "latitude": -9.74032, "longitude": -37.4403}, {"nome": "Jequiá da Praia", "UF": "Alagoas", "latitude": -10.0133, "longitude": -36.0142}, {"nome": "Palmeira dos Índios", "UF": "Alagoas", "latitude": -9.40568, "longitude": -36.6328}, {"nome": "Jaramataia", "UF": "Alagoas", "latitude": -9.66224, "longitude": -37.0046}, {"nome": "Arapiraca", "UF": "Alagoas", "latitude": -9.75487, "longitude": -36.6615}, {"nome": "Delmiro Gouveia", "UF": "Alagoas", "latitude": -9.38534, "longitude": -37.9987}, {"nome": "Dois Riachos", "UF": "Alagoas", "latitude": -9.38465, "longitude": -37.0965}, {"nome": "Porto de Pedras", "UF": "Alagoas", "latitude": -9.16006, "longitude": -35.3049}, {"nome": "Japaratinga", "UF": "Alagoas", "latitude": -9.08746, "longitude": -35.2634}, {"nome": "Porto Real do Colégio", "UF": "Alagoas", "latitude": -10.1849, "longitude": -36.8376}, {"nome": "Palestina", "UF": "Alagoas", "latitude": -9.67493, "longitude": -37.339}, {"nome": "Olho d'Água das Flores", "UF": "Alagoas", "latitude": -9.53686, "longitude": -37.2971}, {"nome": "Jacaré dos Homens", "UF": "Alagoas", "latitude": -9.63545, "longitude": -37.2076}, {"nome": "Estrela de Alagoas", "UF": "Alagoas", "latitude": -9.39089, "longitude": -36.7644}, {"nome": "Satuba", "UF": "Alagoas", "latitude": -9.56911, "longitude": -35.8227}, {"nome": "Jacuípe", "UF": "Alagoas", "latitude": -8.83951, "longitude": -35.4591}, {"nome": "Ouro Branco", "UF": "Alagoas", "latitude": -9.15884, "longitude": -37.3556}, {"nome": "Senador Rui Palmeira", "UF": "Alagoas", "latitude": -9.46986, "longitude": -37.4576}, {"nome": "São Sebastião", "UF": "Alagoas", "latitude": -9.93043, "longitude": -36.559}, {"nome": "Laranjal do Jari", "UF": "Amapá", "latitude": -0.804911, "longitude": -52.453}, {"nome": "Calçoene", "UF": "Amapá", "latitude": 2.50475, "longitude": -50.9512}, {"nome": "Oiapoque", "UF": "Amapá", "latitude": 3.84074, "longitude": -51.8331}, {"nome": "Macapá", "UF": "Amapá", "latitude": 0.034934, "longitude": -51.0694}, {"nome": "Amapá", "UF": "Amapá", "latitude": 2.05267, "longitude": -50.7957}, {"nome": "Mazagão", "UF": "Amapá", "latitude": -0.11336, "longitude": -51.2891}, {"nome": "Santana", "UF": "Amapá", "latitude": -0.045434, "longitude": -51.1729}, {"nome": "Itaubal", "UF": "Amapá", "latitude": 0.602185, "longitude": -50.6996}, {"nome": "Serra do Navio", "UF": "Amapá", "latitude": 0.901357, "longitude": -52.0036}, {"nome": "Cutias", "UF": "Amapá", "latitude": 0.970761, "longitude": -50.8005}, {"nome": "Porto Grande", "UF": "Amapá", "latitude": 0.71243, "longitude": -51.4155}, {"nome": "Pedra Branca do Amapari", "UF": "Amapá", "latitude": 0.777424, "longitude": -51.9503}, {"nome": "Tartarugalzinho", "UF": "Amapá", "latitude": 1.50652, "longitude": -50.9087}, {"nome": "Pracuúba", "UF": "Amapá", "latitude": 1.74543, "longitude": -50.7892}, {"nome": "Ferreira Gomes", "UF": "Amapá", "latitude": 0.857256, "longitude": -51.1795}, {"nome": "Vitória do Jari", "UF": "Amapá", "latitude": -0.938, "longitude": -52.424}, {"nome": "Tefé", "UF": "Amazonas", "latitude": -3.36822, "longitude": -64.7193}, {"nome": "Silves", "UF": "Amazonas", "latitude": -2.81748, "longitude": -58.248}, {"nome": "Envira", "UF": "Amazonas", "latitude": -7.43789, "longitude": -70.0281}, {"nome": "Eirunepé", "UF": "Amazonas", "latitude": -6.65677, "longitude": -69.8662}, {"nome": "Alvarães", "UF": "Amazonas", "latitude": -3.22727, "longitude": -64.8007}, {"nome": "Parintins", "UF": "Amazonas", "latitude": -2.63741, "longitude": -56.729}, {"nome": "Tapauá", "UF": "Amazonas", "latitude": -5.62085, "longitude": -63.1808}, {"nome": "Coari", "UF": "Amazonas", "latitude": -4.09412, "longitude": -63.1441}, {"nome": "Itacoatiara", "UF": "Amazonas", "latitude": -3.13861, "longitude": -58.4449}, {"nome": "Pauini", "UF": "Amazonas", "latitude": -7.71311, "longitude": -66.992}, {"nome": "Careiro da Várzea", "UF": "Amazonas", "latitude": -3.314, "longitude": -59.5557}, {"nome": "Barreirinha", "UF": "Amazonas", "latitude": -2.79886, "longitude": -57.0679}, {"nome": "Codajás", "UF": "Amazonas", "latitude": -3.83053, "longitude": -62.0658}, {"nome": "Manaus", "UF": "Amazonas", "latitude": -3.11866, "longitude": -60.0212}, {"nome": "Maués", "UF": "Amazonas", "latitude": -3.39289, "longitude": -57.7067}, {"nome": "Presidente Figueiredo", "UF": "Amazonas", "latitude": -2.02981, "longitude": -60.0234}, {"nome": "Nhamundá", "UF": "Amazonas", "latitude": -2.20793, "longitude": -56.7112}, {"nome": "Itamarati", "UF": "Amazonas", "latitude": -6.43852, "longitude": -68.2437}, {"nome": "Japurá", "UF": "Amazonas", "latitude": -1.88237, "longitude": -66.9291}, {"nome": "Santo Antônio do Içá", "UF": "Amazonas", "latitude": -3.09544, "longitude": -67.9463}, {"nome": "Maraã", "UF": "Amazonas", "latitude": -1.85313, "longitude": -65.573}, {"nome": "Jutaí", "UF": "Amazonas", "latitude": -2.75814, "longitude": -66.7595}, {"nome": "São Gabriel da Cachoeira", "UF": "Amazonas", "latitude": -0.11909, "longitude": -67.084}, {"nome": "Itapiranga", "UF": "Amazonas", "latitude": -2.74081, "longitude": -58.0293}, {"nome": "Manicoré", "UF": "Amazonas", "latitude": -5.80462, "longitude": -61.2895}, {"nome": "Juruá", "UF": "Amazonas", "latitude": -3.48438, "longitude": -66.0718}, {"nome": "Manacapuru", "UF": "Amazonas", "latitude": -3.29066, "longitude": -60.6216}, {"nome": "Manaquiri", "UF": "Amazonas", "latitude": -3.44078, "longitude": -60.4612}, {"nome": "Careiro", "UF": "Amazonas", "latitude": -3.76803, "longitude": -60.369}, {"nome": "Lábrea", "UF": "Amazonas", "latitude": -7.26413, "longitude": -64.7948}, {"nome": "Carauari", "UF": "Amazonas", "latitude": -4.88161, "longitude": -66.9086}, {"nome": "Fonte Boa", "UF": "Amazonas", "latitude": -2.52342, "longitude": -66.0942}, {"nome": "Canutama", "UF": "Amazonas", "latitude": -6.52582, "longitude": -64.3953}, {"nome": "Anamã", "UF": "Amazonas", "latitude": -3.56697, "longitude": -61.3963}, {"nome": "São Paulo de Olivença", "UF": "Amazonas", "latitude": -3.47292, "longitude": -68.9646}, {"nome": "Guajará", "UF": "Amazonas", "latitude": -7.53797, "longitude": -72.5907}, {"nome": "Iranduba", "UF": "Amazonas", "latitude": -3.27479, "longitude": -60.19}, {"nome": "Santa Isabel do Rio Negro", "UF": "Amazonas", "latitude": -0.410824, "longitude": -65.0092}, {"nome": "Amaturá", "UF": "Amazonas", "latitude": -3.37455, "longitude": -68.2005}, {"nome": "Novo Airão", "UF": "Amazonas", "latitude": -2.63637, "longitude": -60.9434}, {"nome": "Novo Aripuanã", "UF": "Amazonas", "latitude": -5.12593, "longitude": -60.3732}, {"nome": "Ipixuna", "UF": "Amazonas", "latitude": -7.04791, "longitude": -71.6934}, {"nome": "Anori", "UF": "Amazonas", "latitude": -3.74603, "longitude": -61.6575}, {"nome": "São Sebastião do Uatumã", "UF": "Amazonas", "latitude": -2.55915, "longitude": -57.8731}, {"nome": "Nova Olinda do Norte", "UF": "Amazonas", "latitude": -3.90037, "longitude": -59.094}, {"nome": "Tabatinga", "UF": "Amazonas", "latitude": -4.2416, "longitude": -69.9383}, {"nome": "Apuí", "UF": "Amazonas", "latitude": -7.19409, "longitude": -59.896}, {"nome": "Humaitá", "UF": "Amazonas", "latitude": -7.51171, "longitude": -63.0327}, {"nome": "Beruri", "UF": "Amazonas", "latitude": -3.89874, "longitude": -61.3616}, {"nome": "Atalaia do Norte", "UF": "Amazonas", "latitude": -4.37055, "longitude": -70.1967}, {"nome": "Rio Preto da Eva", "UF": "Amazonas", "latitude": -2.7045, "longitude": -59.6858}, {"nome": "Autazes", "UF": "Amazonas", "latitude": -3.58574, "longitude": -59.1256}, {"nome": "Benjamin Constant", "UF": "Amazonas", "latitude": -4.37768, "longitude": -70.0342}, {"nome": "Urucará", "UF": "Amazonas", "latitude": -2.52936, "longitude": -57.7538}, {"nome": "Tonantins", "UF": "Amazonas", "latitude": -2.86582, "longitude": -67.7919}, {"nome": "Urucurituba", "UF": "Amazonas", "latitude": -3.12841, "longitude": -58.1496}, {"nome": "Borba", "UF": "Amazonas", "latitude": -4.39154, "longitude": -59.5874}, {"nome": "Barcelos", "UF": "Amazonas", "latitude": -0.983373, "longitude": -62.9311}, {"nome": "Boca do Acre", "UF": "Amazonas", "latitude": -8.74232, "longitude": -67.3919}, {"nome": "Boa Vista do Ramos", "UF": "Amazonas", "latitude": -2.97409, "longitude": -57.5873}, {"nome": "Uarini", "UF": "Amazonas", "latitude": -2.99609, "longitude": -65.1133}, {"nome": "Caapiranga", "UF": "Amazonas", "latitude": -3.31537, "longitude": -61.2206}, {"nome": "Contendas do Sincorá", "UF": "Bahia", "latitude": -13.7537, "longitude": -41.048}, {"nome": "Jucuruçu", "UF": "Bahia", "latitude": -16.8488, "longitude": -40.1641}, {"nome": "Coração de Maria", "UF": "Bahia", "latitude": -12.2333, "longitude": -38.7487}, {"nome": "Palmas de Monte Alto", "UF": "Bahia", "latitude": -14.2676, "longitude": -43.1609}, {"nome": "Coribe", "UF": "Bahia", "latitude": -13.8232, "longitude": -44.4586}, {"nome": "Condeúba", "UF": "Bahia", "latitude": -14.9022, "longitude": -41.9718}, {"nome": "Paramirim", "UF": "Bahia", "latitude": -13.4388, "longitude": -42.2395}, {"nome": "Sobradinho", "UF": "Bahia", "latitude": -9.45024, "longitude": -40.8145}, {"nome": "Santa Luzia", "UF": "Bahia", "latitude": -15.4342, "longitude": -39.3287}, {"nome": "Conde", "UF": "Bahia", "latitude": -11.8179, "longitude": -37.6131}, {"nome": "Serrolândia", "UF": "Bahia", "latitude": -11.4085, "longitude": -40.2983}, {"nome": "Crisópolis", "UF": "Bahia", "latitude": -11.5059, "longitude": -38.1515}, {"nome": "São Francisco do Conde", "UF": "Bahia", "latitude": -12.6183, "longitude": -38.6786}, {"nome": "Serra do Ramalho", "UF": "Bahia", "latitude": -13.5659, "longitude": -43.5929}, {"nome": "Serra Dourada", "UF": "Bahia", "latitude": -12.759, "longitude": -43.9504}, {"nome": "Dom Macedo Costa", "UF": "Bahia", "latitude": -12.9016, "longitude": -39.1923}, {"nome": "Dom Basílio", "UF": "Bahia", "latitude": -13.7565, "longitude": -41.7677}, {"nome": "Serra Preta", "UF": "Bahia", "latitude": -12.156, "longitude": -39.3305}, {"nome": "Dias d'Ávila", "UF": "Bahia", "latitude": -12.6187, "longitude": -38.2926}, {"nome": "Serrinha", "UF": "Bahia", "latitude": -11.6584, "longitude": -39.01}, {"nome": "Coronel João Sá", "UF": "Bahia", "latitude": -10.2847, "longitude": -37.9198}, {"nome": "Cravolândia", "UF": "Bahia", "latitude": -13.3531, "longitude": -39.8031}, {"nome": "Sítio do Quinto", "UF": "Bahia", "latitude": -10.3545, "longitude": -38.2213}, {"nome": "Iuiú", "UF": "Bahia", "latitude": -14.4054, "longitude": -43.5595}, {"nome": "Correntina", "UF": "Bahia", "latitude": -13.3477, "longitude": -44.6333}, {"nome": "Filadélfia", "UF": "Bahia", "latitude": -10.7405, "longitude": -40.1437}, {"nome": "Oliveira dos Brejinhos", "UF": "Bahia", "latitude": -12.3132, "longitude": -42.8969}, {"nome": "Dário Meira", "UF": "Bahia", "latitude": -14.4229, "longitude": -39.9031}, {"nome": "Santa Bárbara", "UF": "Bahia", "latitude": -11.9515, "longitude": -38.9681}, {"nome": "Muquém de São Francisco", "UF": "Bahia", "latitude": -12.065, "longitude": -43.5497}, {"nome": "Muniz Ferreira", "UF": "Bahia", "latitude": -13.0092, "longitude": -39.1092}, {"nome": "Feira de Santana", "UF": "Bahia", "latitude": -12.2664, "longitude": -38.9663}, {"nome": "Feira da Mata", "UF": "Bahia", "latitude": -14.2044, "longitude": -44.2744}, {"nome": "Jaborandi", "UF": "Bahia", "latitude": -13.6071, "longitude": -44.4255}, {"nome": "São Gonçalo dos Campos", "UF": "Bahia", "latitude": -12.4331, "longitude": -38.9663}, {"nome": "Jacaraci", "UF": "Bahia", "latitude": -14.8541, "longitude": -42.4329}, {"nome": "Sátiro Dias", "UF": "Bahia", "latitude": -11.5929, "longitude": -38.5938}, {"nome": "Mundo Novo", "UF": "Bahia", "latitude": -11.8541, "longitude": -40.4714}, {"nome": "Elísio Medrado", "UF": "Bahia", "latitude": -12.9417, "longitude": -39.5191}, {"nome": "Jandaíra", "UF": "Bahia", "latitude": -11.5616, "longitude": -37.7853}, {"nome": "Salinas da Margarida", "UF": "Bahia", "latitude": -12.873, "longitude": -38.7562}, {"nome": "Mortugaba", "UF": "Bahia", "latitude": -15.0225, "longitude": -42.3727}, {"nome": "Jiquiriçá", "UF": "Bahia", "latitude": -13.2621, "longitude": -39.5737}, {"nome": "Simões Filho", "UF": "Bahia", "latitude": -12.7866, "longitude": -38.4029}, {"nome": "Jitaúna", "UF": "Bahia", "latitude": -14.0131, "longitude": -39.8969}, {"nome": "Cotegipe", "UF": "Bahia", "latitude": -12.0228, "longitude": -44.2566}, {"nome": "João Dourado", "UF": "Bahia", "latitude": -11.3486, "longitude": -41.6548}, {"nome": "Juazeiro", "UF": "Bahia", "latitude": -9.41622, "longitude": -40.5033}, {"nome": "Sítio do Mato", "UF": "Bahia", "latitude": -13.0801, "longitude": -43.4689}, {"nome": "Cristópolis", "UF": "Bahia", "latitude": -12.2249, "longitude": -44.4214}, {"nome": "Ichu", "UF": "Bahia", "latitude": -11.7431, "longitude": -39.1905}, {"nome": "Morro do Chapéu", "UF": "Bahia", "latitude": -11.5488, "longitude": -41.1565}, {"nome": "Nova Ibiá", "UF": "Bahia", "latitude": -13.812, "longitude": -39.6182}, {"nome": "Itajuípe", "UF": "Bahia", "latitude": -14.6788, "longitude": -39.3698}, {"nome": "Itaju do Colônia", "UF": "Bahia", "latitude": -15.1366, "longitude": -39.7283}, {"nome": "Ipecaetá", "UF": "Bahia", "latitude": -12.3028, "longitude": -39.3069}, {"nome": "Iraquara", "UF": "Bahia", "latitude": -12.2429, "longitude": -41.6155}, {"nome": "Itagi", "UF": "Bahia", "latitude": -14.1615, "longitude": -40.0131}, {"nome": "Itacaré", "UF": "Bahia", "latitude": -14.2784, "longitude": -38.9959}, {"nome": "Itabuna", "UF": "Bahia", "latitude": -14.7876, "longitude": -39.2781}, {"nome": "Itaberaba", "UF": "Bahia", "latitude": -12.5242, "longitude": -40.3059}, {"nome": "Itabela", "UF": "Bahia", "latitude": -16.5732, "longitude": -39.5593}, {"nome": "Ibirapitanga", "UF": "Bahia", "latitude": -14.1649, "longitude": -39.3787}, {"nome": "Nilo Peçanha", "UF": "Bahia", "latitude": -13.604, "longitude": -39.1091}, {"nome": "Irará", "UF": "Bahia", "latitude": -12.0504, "longitude": -38.7631}, {"nome": "Nordestina", "UF": "Bahia", "latitude": -10.8192, "longitude": -39.4297}, {"nome": "Ipiaú", "UF": "Bahia", "latitude": -14.1226, "longitude": -39.7353}, {"nome": "Itagibá", "UF": "Bahia", "latitude": -14.2782, "longitude": -39.8449}, {"nome": "Iramaia", "UF": "Bahia", "latitude": -13.2902, "longitude": -40.9595}, {"nome": "Irajuba", "UF": "Bahia", "latitude": -13.2563, "longitude": -40.0848}, {"nome": "Itagimirim", "UF": "Bahia", "latitude": -16.0819, "longitude": -39.6133}, {"nome": "Ipupiara", "UF": "Bahia", "latitude": -11.8219, "longitude": -42.6179}, {"nome": "Itaguaçu da Bahia", "UF": "Bahia", "latitude": -11.0147, "longitude": -42.3997}, {"nome": "Firmino Alves", "UF": "Bahia", "latitude": -14.9823, "longitude": -39.9269}, {"nome": "Irecê", "UF": "Bahia", "latitude": -11.3033, "longitude": -41.8535}, {"nome": "Ibirapuã", "UF": "Bahia", "latitude": -17.6832, "longitude": -40.1129}, {"nome": "Ibirataia", "UF": "Bahia", "latitude": -14.0643, "longitude": -39.6459}, {"nome": "Ibitiara", "UF": "Bahia", "latitude": -12.6502, "longitude": -42.2179}, {"nome": "Curaçá", "UF": "Bahia", "latitude": -8.98458, "longitude": -39.8997}, {"nome": "Ruy Barbosa", "UF": "Bahia", "latitude": -12.2816, "longitude": -40.4931}, {"nome": "Morpará", "UF": "Bahia", "latitude": -11.5569, "longitude": -43.2766}, {"nome": "Jequié", "UF": "Bahia", "latitude": -13.8509, "longitude": -40.0877}, {"nome": "Jeremoabo", "UF": "Bahia", "latitude": -10.0685, "longitude": -38.3471}, {"nome": "Cruz das Almas", "UF": "Bahia", "latitude": -12.6675, "longitude": -39.1008}, {"nome": "Itororó", "UF": "Bahia", "latitude": -15.11, "longitude": -40.0684}, {"nome": "Itiúba", "UF": "Bahia", "latitude": -10.6948, "longitude": -39.8446}, {"nome": "Itiruçu", "UF": "Bahia", "latitude": -13.529, "longitude": -40.1472}, {"nome": "Ibiquera", "UF": "Bahia", "latitude": -12.6444, "longitude": -40.9338}, {"nome": "Inhambupe", "UF": "Bahia", "latitude": -11.781, "longitude": -38.355}, {"nome": "Santa Inês", "UF": "Bahia", "latitude": -13.2793, "longitude": -39.814}, {"nome": "Nova Canaã", "UF": "Bahia", "latitude": -14.7912, "longitude": -40.1458}, {"nome": "São José do Jacuípe", "UF": "Bahia", "latitude": -11.4137, "longitude": -39.8669}, {"nome": "Ilhéus", "UF": "Bahia", "latitude": -14.793, "longitude": -39.046}, {"nome": "Iguaí", "UF": "Bahia", "latitude": -14.7528, "longitude": -40.0894}, {"nome": "Itamaraju", "UF": "Bahia", "latitude": -17.0378, "longitude": -39.5386}, {"nome": "Igrapiúna", "UF": "Bahia", "latitude": -13.8295, "longitude": -39.1361}, {"nome": "Nova Fátima", "UF": "Bahia", "latitude": -11.6031, "longitude": -39.6302}, {"nome": "Igaporã", "UF": "Bahia", "latitude": -13.774, "longitude": -42.7155}, {"nome": "Ibotirama", "UF": "Bahia", "latitude": -12.1779, "longitude": -43.2167}, {"nome": "Ibititá", "UF": "Bahia", "latitude": -11.5414, "longitude": -41.9748}, {"nome": "Itamari", "UF": "Bahia", "latitude": -13.7782, "longitude": -39.683}, {"nome": "São Gabriel", "UF": "Bahia", "latitude": -11.2175, "longitude": -41.8843}, {"nome": "Ituberá", "UF": "Bahia", "latitude": -13.7249, "longitude": -39.1481}, {"nome": "Wenceslau Guimarães", "UF": "Bahia", "latitude": -13.6908, "longitude": -39.4762}, {"nome": "Barro Alto", "UF": "Bahia", "latitude": -11.7605, "longitude": -41.9054}, {"nome": "Andaraí", "UF": "Bahia", "latitude": -12.8049, "longitude": -41.3297}, {"nome": "Andorinha", "UF": "Bahia", "latitude": -10.3482, "longitude": -39.8391}, {"nome": "Barra da Estiva", "UF": "Bahia", "latitude": -13.6237, "longitude": -41.3347}, {"nome": "Aporá", "UF": "Bahia", "latitude": -11.6577, "longitude": -38.0814}, {"nome": "Antônio Gonçalves", "UF": "Bahia", "latitude": -10.5767, "longitude": -40.2785}, {"nome": "Amargosa", "UF": "Bahia", "latitude": -13.0215, "longitude": -39.602}, {"nome": "Umburanas", "UF": "Bahia", "latitude": -10.7339, "longitude": -41.3234}, {"nome": "Amélia Rodrigues", "UF": "Bahia", "latitude": -12.3914, "longitude": -38.7563}, {"nome": "Abaíra", "UF": "Bahia", "latitude": -13.2488, "longitude": -41.6619}, {"nome": "Quixabeira", "UF": "Bahia", "latitude": -11.4031, "longitude": -40.12}, {"nome": "Anagé", "UF": "Bahia", "latitude": -14.6151, "longitude": -41.1356}, {"nome": "Angical", "UF": "Bahia", "latitude": -12.0063, "longitude": -44.7003}, {"nome": "Porto Seguro", "UF": "Bahia", "latitude": -16.4435, "longitude": -39.0643}, {"nome": "Araci", "UF": "Bahia", "latitude": -11.3253, "longitude": -38.9584}, {"nome": "Barra do Mendes", "UF": "Bahia", "latitude": -11.81, "longitude": -42.059}, {"nome": "Vereda", "UF": "Bahia", "latitude": -17.2183, "longitude": -40.0974}, {"nome": "Barra", "UF": "Bahia", "latitude": -11.0859, "longitude": -43.1459}, {"nome": "Rafael Jambeiro", "UF": "Bahia", "latitude": -12.4053, "longitude": -39.5007}, {"nome": "Xique-Xique", "UF": "Bahia", "latitude": -10.823, "longitude": -42.7245}, {"nome": "Valente", "UF": "Bahia", "latitude": -11.4062, "longitude": -39.457}, {"nome": "Retirolândia", "UF": "Bahia", "latitude": -11.4832, "longitude": -39.4234}, {"nome": "Alcobaça", "UF": "Bahia", "latitude": -17.5195, "longitude": -39.2036}, {"nome": "Presidente Jânio Quadros", "UF": "Bahia", "latitude": -14.6885, "longitude": -41.6798}, {"nome": "Acajutiba", "UF": "Bahia", "latitude": -11.6575, "longitude": -38.0197}, {"nome": "Apuarema", "UF": "Bahia", "latitude": -13.8542, "longitude": -39.7501}, {"nome": "Prado", "UF": "Bahia", "latitude": -17.3364, "longitude": -39.2227}, {"nome": "Presidente Tancredo Neves", "UF": "Bahia", "latitude": -13.4471, "longitude": -39.4203}, {"nome": "Várzea Nova", "UF": "Bahia", "latitude": -11.2557, "longitude": -40.9432}, {"nome": "São José da Vitória", "UF": "Bahia", "latitude": -15.0787, "longitude": -39.3437}, {"nome": "América Dourada", "UF": "Bahia", "latitude": -11.4429, "longitude": -41.439}, {"nome": "Wagner", "UF": "Bahia", "latitude": -12.2819, "longitude": -41.1715}, {"nome": "Quijingue", "UF": "Bahia", "latitude": -10.7505, "longitude": -39.2137}, {"nome": "Riachão do Jacuípe", "UF": "Bahia", "latitude": -11.8067, "longitude": -39.3818}, {"nome": "Aratuípe", "UF": "Bahia", "latitude": -13.0716, "longitude": -39.0038}, {"nome": "Água Fria", "UF": "Bahia", "latitude": -11.8618, "longitude": -38.7639}, {"nome": "Wanderley", "UF": "Bahia", "latitude": -12.1144, "longitude": -43.8958}, {"nome": "Remanso", "UF": "Bahia", "latitude": -9.61944, "longitude": -42.0848}, {"nome": "Queimadas", "UF": "Bahia", "latitude": -10.9736, "longitude": -39.6293}, {"nome": "Arataca", "UF": "Bahia", "latitude": -15.2651, "longitude": -39.419}, {"nome": "Varzedo", "UF": "Bahia", "latitude": -12.9672, "longitude": -39.3919}, {"nome": "Araças", "UF": "Bahia", "latitude": -12.22, "longitude": -38.2027}, {"nome": "Almadina", "UF": "Bahia", "latitude": -14.7089, "longitude": -39.6415}, {"nome": "Potiraguá", "UF": "Bahia", "latitude": -15.5943, "longitude": -39.8638}, {"nome": "Pojuca", "UF": "Bahia", "latitude": -12.4303, "longitude": -38.3374}, {"nome": "Aramari", "UF": "Bahia", "latitude": -12.0884, "longitude": -38.4969}, {"nome": "Urandi", "UF": "Bahia", "latitude": -14.7678, "longitude": -42.6498}, {"nome": "Banzaê", "UF": "Bahia", "latitude": -10.5788, "longitude": -38.6212}, {"nome": "Barreiras", "UF": "Bahia", "latitude": -12.1439, "longitude": -44.9968}, {"nome": "Antas", "UF": "Bahia", "latitude": -10.3856, "longitude": -38.3401}, {"nome": "Ponto Novo", "UF": "Bahia", "latitude": -10.8653, "longitude": -40.1311}, {"nome": "Riacho de Santana", "UF": "Bahia", "latitude": -13.6059, "longitude": -42.9397}, {"nome": "Barra do Choça", "UF": "Bahia", "latitude": -14.8654, "longitude": -40.5791}, {"nome": "Ouriçangas", "UF": "Bahia", "latitude": -12.0175, "longitude": -38.6166}, {"nome": "Jacobina", "UF": "Bahia", "latitude": -11.1812, "longitude": -40.5117}, {"nome": "Salvador", "UF": "Bahia", "latitude": -12.9718, "longitude": -38.5011}, {"nome": "Mulungu do Morro", "UF": "Bahia", "latitude": -11.9648, "longitude": -41.6374}, {"nome": "Esplanada", "UF": "Bahia", "latitude": -11.7942, "longitude": -37.9432}, {"nome": "Jaguaquara", "UF": "Bahia", "latitude": -13.5248, "longitude": -39.964}, {"nome": "Jaguarari", "UF": "Bahia", "latitude": -10.2569, "longitude": -40.1999}, {"nome": "Érico Cardoso", "UF": "Bahia", "latitude": -13.4215, "longitude": -42.1352}, {"nome": "Jaguaripe", "UF": "Bahia", "latitude": -13.1109, "longitude": -38.8939}, {"nome": "Ourolândia", "UF": "Bahia", "latitude": -10.9578, "longitude": -41.0756}, {"nome": "Euclides da Cunha", "UF": "Bahia", "latitude": -10.5078, "longitude": -39.0153}, {"nome": "Mucuri", "UF": "Bahia", "latitude": -18.0754, "longitude": -39.5565}, {"nome": "Entre Rios", "UF": "Bahia", "latitude": -11.9392, "longitude": -38.0871}, {"nome": "Senhor do Bonfim", "UF": "Bahia", "latitude": -10.4594, "longitude": -40.1865}, {"nome": "Encruzilhada", "UF": "Bahia", "latitude": -15.5302, "longitude": -40.9124}, {"nome": "Sento Sé", "UF": "Bahia", "latitude": -9.74138, "longitude": -41.8786}, {"nome": "Seabra", "UF": "Bahia", "latitude": -12.4169, "longitude": -41.7722}, {"nome": "Saubara", "UF": "Bahia", "latitude": -12.7387, "longitude": -38.7625}, {"nome": "Conceição do Coité", "UF": "Bahia", "latitude": -11.56, "longitude": -39.2808}, {"nome": "Fátima", "UF": "Bahia", "latitude": -10.616, "longitude": -38.2239}, {"nome": "Ituaçu", "UF": "Bahia", "latitude": -13.8107, "longitude": -41.3003}, {"nome": "Floresta Azul", "UF": "Bahia", "latitude": -14.8629, "longitude": -39.6579}, {"nome": "Mucugê", "UF": "Bahia", "latitude": -13.0053, "longitude": -41.3703}, {"nome": "Sebastião Laranjeiras", "UF": "Bahia", "latitude": -14.571, "longitude": -42.9434}, {"nome": "Eunápolis", "UF": "Bahia", "latitude": -16.3715, "longitude": -39.5821}, {"nome": "Saúde", "UF": "Bahia", "latitude": -10.9428, "longitude": -40.4155}, {"nome": "Anguera", "UF": "Bahia", "latitude": -12.1462, "longitude": -39.2462}, {"nome": "Utinga", "UF": "Bahia", "latitude": -12.0783, "longitude": -41.0954}, {"nome": "Aracatu", "UF": "Bahia", "latitude": -14.428, "longitude": -41.4648}, {"nome": "Antônio Cardoso", "UF": "Bahia", "latitude": -12.4335, "longitude": -39.1176}, {"nome": "Vera Cruz", "UF": "Bahia", "latitude": -12.9568, "longitude": -38.6153}, {"nome": "Aurelino Leal", "UF": "Bahia", "latitude": -14.321, "longitude": -39.329}, {"nome": "Vitória da Conquista", "UF": "Bahia", "latitude": -14.8615, "longitude": -40.8442}, {"nome": "Adustina", "UF": "Bahia", "latitude": -10.5437, "longitude": -38.1113}, {"nome": "Barra do Rocha", "UF": "Bahia", "latitude": -14.2, "longitude": -39.5991}, {"nome": "Uruçuca", "UF": "Bahia", "latitude": -14.5963, "longitude": -39.2851}, {"nome": "Abaré", "UF": "Bahia", "latitude": -8.72073, "longitude": -39.1162}, {"nome": "Aiquara", "UF": "Bahia", "latitude": -14.1269, "longitude": -39.8937}, {"nome": "Várzea do Poço", "UF": "Bahia", "latitude": -11.5273, "longitude": -40.3149}, {"nome": "Várzea da Roça", "UF": "Bahia", "latitude": -11.6005, "longitude": -40.1328}, {"nome": "Una", "UF": "Bahia", "latitude": -15.2791, "longitude": -39.0765}, {"nome": "Baixa Grande", "UF": "Bahia", "latitude": -11.9519, "longitude": -40.169}, {"nome": "Poções", "UF": "Bahia", "latitude": -14.5234, "longitude": -40.3634}, {"nome": "Presidente Dutra", "UF": "Bahia", "latitude": -11.2923, "longitude": -41.9843}, {"nome": "Alagoinhas", "UF": "Bahia", "latitude": -12.1335, "longitude": -38.4208}, {"nome": "Baianópolis", "UF": "Bahia", "latitude": -12.3016, "longitude": -44.5388}, {"nome": "Valença", "UF": "Bahia", "latitude": -13.3669, "longitude": -39.073}, {"nome": "Palmeiras", "UF": "Bahia", "latitude": -12.5059, "longitude": -41.5809}, {"nome": "Sapeaçu", "UF": "Bahia", "latitude": -12.7208, "longitude": -39.1824}, {"nome": "Olindina", "UF": "Bahia", "latitude": -11.3497, "longitude": -38.3379}, {"nome": "Ipirá", "UF": "Bahia", "latitude": -12.1561, "longitude": -39.7359}, {"nome": "Riachão das Neves", "UF": "Bahia", "latitude": -11.7508, "longitude": -44.9143}, {"nome": "Ibipitanga", "UF": "Bahia", "latitude": -12.8804, "longitude": -42.4856}, {"nome": "Macajuba", "UF": "Bahia", "latitude": -12.1326, "longitude": -40.3571}, {"nome": "Macaúbas", "UF": "Bahia", "latitude": -13.0186, "longitude": -42.6945}, {"nome": "Canarana", "UF": "Bahia", "latitude": -11.6858, "longitude": -41.7677}, {"nome": "Rodelas", "UF": "Bahia", "latitude": -8.85021, "longitude": -38.78}, {"nome": "Tanque Novo", "UF": "Bahia", "latitude": -13.5485, "longitude": -42.4934}, {"nome": "Caturama", "UF": "Bahia", "latitude": -13.3239, "longitude": -42.2904}, {"nome": "Tanquinho", "UF": "Bahia", "latitude": -11.968, "longitude": -39.1033}, {"nome": "Catu", "UF": "Bahia", "latitude": -12.3513, "longitude": -38.3791}, {"nome": "Catolândia", "UF": "Bahia", "latitude": -12.31, "longitude": -44.8648}, {"nome": "Lagoa Real", "UF": "Bahia", "latitude": -14.0334, "longitude": -42.1328}, {"nome": "Boa Nova", "UF": "Bahia", "latitude": -14.3598, "longitude": -40.2064}, {"nome": "Castro Alves", "UF": "Bahia", "latitude": -12.7579, "longitude": -39.4248}, {"nome": "Taperoá", "UF": "Bahia", "latitude": -13.5321, "longitude": -39.1009}, {"nome": "Lapão", "UF": "Bahia", "latitude": -11.3851, "longitude": -41.8286}, {"nome": "Casa Nova", "UF": "Bahia", "latitude": -9.16408, "longitude": -40.974}, {"nome": "Paulo Afonso", "UF": "Bahia", "latitude": -9.3983, "longitude": -38.2216}, {"nome": "Lajedão", "UF": "Bahia", "latitude": -17.6056, "longitude": -40.3383}, {"nome": "Tapiramutá", "UF": "Bahia", "latitude": -11.8475, "longitude": -40.7927}, {"nome": "Carinhanha", "UF": "Bahia", "latitude": -14.2985, "longitude": -43.7724}, {"nome": "Lajedo do Tabocal", "UF": "Bahia", "latitude": -13.4663, "longitude": -40.2204}, {"nome": "Lamarão", "UF": "Bahia", "latitude": -11.773, "longitude": -38.887}, {"nome": "São Felipe", "UF": "Bahia", "latitude": -12.8394, "longitude": -39.0893}, {"nome": "Laje", "UF": "Bahia", "latitude": -13.1673, "longitude": -39.4213}, {"nome": "Pau Brasil", "UF": "Bahia", "latitude": -15.4572, "longitude": -39.6458}, {"nome": "Miguel Calmon", "UF": "Bahia", "latitude": -11.4299, "longitude": -40.6031}, {"nome": "Boa Vista do Tupim", "UF": "Bahia", "latitude": -12.6498, "longitude": -40.6064}, {"nome": "Uibaí", "UF": "Bahia", "latitude": -11.3394, "longitude": -42.1354}, {"nome": "Ribeira do Amparo", "UF": "Bahia", "latitude": -11.0421, "longitude": -38.4242}, {"nome": "Barrocas", "UF": "Bahia", "latitude": -11.5272, "longitude": -39.0776}, {"nome": "Barro Preto", "UF": "Bahia", "latitude": -14.7948, "longitude": -39.476}, {"nome": "Santo Amaro", "UF": "Bahia", "latitude": -12.5472, "longitude": -38.7137}, {"nome": "Piritiba", "UF": "Bahia", "latitude": -11.73, "longitude": -40.5587}, {"nome": "Manoel Vitorino", "UF": "Bahia", "latitude": -14.1476, "longitude": -40.2399}, {"nome": "Bom Jesus da Lapa", "UF": "Bahia", "latitude": -13.2506, "longitude": -43.4108}, {"nome": "Boquira", "UF": "Bahia", "latitude": -12.8205, "longitude": -42.7324}, {"nome": "Tucano", "UF": "Bahia", "latitude": -10.9584, "longitude": -38.7894}, {"nome": "Marcionílio Souza", "UF": "Bahia", "latitude": -13.0064, "longitude": -40.5295}, {"nome": "Mansidão", "UF": "Bahia", "latitude": -10.7227, "longitude": -44.0428}, {"nome": "Santo Antônio de Jesus", "UF": "Bahia", "latitude": -12.9614, "longitude": -39.2584}, {"nome": "Boninal", "UF": "Bahia", "latitude": -12.7069, "longitude": -41.8286}, {"nome": "Piraí do Norte", "UF": "Bahia", "latitude": -13.759, "longitude": -39.3836}, {"nome": "Bom Jesus da Serra", "UF": "Bahia", "latitude": -14.3663, "longitude": -40.5126}, {"nome": "Maracás", "UF": "Bahia", "latitude": -13.4355, "longitude": -40.4323}, {"nome": "Piripá", "UF": "Bahia", "latitude": -14.9444, "longitude": -41.7168}, {"nome": "Ribeirão do Largo", "UF": "Bahia", "latitude": -15.4508, "longitude": -40.7441}, {"nome": "Maragogipe", "UF": "Bahia", "latitude": -12.776, "longitude": -38.9175}, {"nome": "Milagres", "UF": "Bahia", "latitude": -12.8646, "longitude": -39.8611}, {"nome": "Maraú", "UF": "Bahia", "latitude": -14.1035, "longitude": -39.0137}, {"nome": "Bonito", "UF": "Bahia", "latitude": -11.9668, "longitude": -41.2647}, {"nome": "Tanhaçu", "UF": "Bahia", "latitude": -14.0197, "longitude": -41.2473}, {"nome": "Central", "UF": "Bahia", "latitude": -11.1376, "longitude": -42.1116}, {"nome": "Monte Santo", "UF": "Bahia", "latitude": -10.4374, "longitude": -39.3321}, {"nome": "Teofilândia", "UF": "Bahia", "latitude": -11.4827, "longitude": -38.9913}, {"nome": "Santa Teresinha", "UF": "Bahia", "latitude": -12.7697, "longitude": -39.5215}, {"nome": "Capela do Alto Alegre", "UF": "Bahia", "latitude": -11.6658, "longitude": -39.8349}, {"nome": "Capim Grosso", "UF": "Bahia", "latitude": -11.3797, "longitude": -40.0089}, {"nome": "Santo Estêvão", "UF": "Bahia", "latitude": -12.428, "longitude": -39.2505}, {"nome": "Licínio de Almeida", "UF": "Bahia", "latitude": -14.6842, "longitude": -42.5095}, {"nome": "Teolândia", "UF": "Bahia", "latitude": -13.5896, "longitude": -39.484}, {"nome": "Mirante", "UF": "Bahia", "latitude": -14.2385, "longitude": -40.7718}, {"nome": "Candiba", "UF": "Bahia", "latitude": -14.4097, "longitude": -42.8667}, {"nome": "Pedro Alexandre", "UF": "Bahia", "latitude": -10.012, "longitude": -37.8932}, {"nome": "Livramento de Nossa Senhora", "UF": "Bahia", "latitude": -13.6369, "longitude": -41.8432}, {"nome": "Caravelas", "UF": "Bahia", "latitude": -17.7268, "longitude": -39.2597}, {"nome": "Candeal", "UF": "Bahia", "latitude": -11.8049, "longitude": -39.1203}, {"nome": "Candeias", "UF": "Bahia", "latitude": -12.6716, "longitude": -38.5472}, {"nome": "São Domingos", "UF": "Bahia", "latitude": -11.4649, "longitude": -39.5268}, {"nome": "Santaluz", "UF": "Bahia", "latitude": -11.2508, "longitude": -39.375}, {"nome": "Caraíbas", "UF": "Bahia", "latitude": -14.7177, "longitude": -41.2603}, {"nome": "Cândido Sales", "UF": "Bahia", "latitude": -15.4993, "longitude": -41.2414}, {"nome": "São Desidério", "UF": "Bahia", "latitude": -12.3572, "longitude": -44.9769}, {"nome": "Lauro de Freitas", "UF": "Bahia", "latitude": -12.8978, "longitude": -38.321}, {"nome": "Itambé", "UF": "Bahia", "latitude": -15.2429, "longitude": -40.63}, {"nome": "Rio Real", "UF": "Bahia", "latitude": -11.4814, "longitude": -37.9332}, {"nome": "Canavieiras", "UF": "Bahia", "latitude": -15.6722, "longitude": -38.9536}, {"nome": "Teixeira de Freitas", "UF": "Bahia", "latitude": -17.5399, "longitude": -39.74}, {"nome": "Luís Eduardo Magalhães", "UF": "Bahia", "latitude": -12.0956, "longitude": -45.7866}, {"nome": "Cardeal da Silva", "UF": "Bahia", "latitude": -11.9472, "longitude": -37.9469}, {"nome": "Paratinga", "UF": "Bahia", "latitude": -12.687, "longitude": -43.1798}, {"nome": "Santa Rita de Cássia", "UF": "Bahia", "latitude": -11.0063, "longitude": -44.5255}, {"nome": "São Félix do Coribe", "UF": "Bahia", "latitude": -13.4019, "longitude": -44.1837}, {"nome": "Souto Soares", "UF": "Bahia", "latitude": -12.088, "longitude": -41.6427}, {"nome": "Paripiranga", "UF": "Bahia", "latitude": -10.6859, "longitude": -37.8626}, {"nome": "Jussara", "UF": "Bahia", "latitude": -11.0431, "longitude": -41.9702}, {"nome": "Jussari", "UF": "Bahia", "latitude": -15.192, "longitude": -39.491}, {"nome": "Cocos", "UF": "Bahia", "latitude": -14.1814, "longitude": -44.5352}, {"nome": "Jussiape", "UF": "Bahia", "latitude": -13.5155, "longitude": -41.5882}, {"nome": "Coaraci", "UF": "Bahia", "latitude": -14.637, "longitude": -39.5556}, {"nome": "Cipó", "UF": "Bahia", "latitude": -11.1032, "longitude": -38.5179}, {"nome": "Cícero Dantas", "UF": "Bahia", "latitude": -10.5897, "longitude": -38.3794}, {"nome": "Chorrochó", "UF": "Bahia", "latitude": -8.9695, "longitude": -39.0979}, {"nome": "Tabocas do Brejo Velho", "UF": "Bahia", "latitude": -12.7026, "longitude": -44.0075}, {"nome": "Lafaiete Coutinho", "UF": "Bahia", "latitude": -13.6541, "longitude": -40.2119}, {"nome": "São Félix", "UF": "Bahia", "latitude": -12.6104, "longitude": -38.9727}, {"nome": "Pé de Serra", "UF": "Bahia", "latitude": -11.8313, "longitude": -39.611}, {"nome": "Itaeté", "UF": "Bahia", "latitude": -12.9831, "longitude": -40.9677}, {"nome": "Canudos", "UF": "Bahia", "latitude": -9.90014, "longitude": -39.1471}, {"nome": "Lençóis", "UF": "Bahia", "latitude": -12.5616, "longitude": -41.3928}, {"nome": "Cansanção", "UF": "Bahia", "latitude": -10.6647, "longitude": -39.4944}, {"nome": "Teodoro Sampaio", "UF": "Bahia", "latitude": -12.295, "longitude": -38.6347}, {"nome": "Pedrão", "UF": "Bahia", "latitude": -12.1491, "longitude": -38.6487}, {"nome": "Matina", "UF": "Bahia", "latitude": -13.9109, "longitude": -42.8439}, {"nome": "Planalto", "UF": "Bahia", "latitude": -14.6654, "longitude": -40.4718}, {"nome": "Lajedinho", "UF": "Bahia", "latitude": -12.3529, "longitude": -40.9048}, {"nome": "Mata de São João", "UF": "Bahia", "latitude": -12.5307, "longitude": -38.3009}, {"nome": "Ibicaraí", "UF": "Bahia", "latitude": -14.8579, "longitude": -39.5914}, {"nome": "Ibiassucê", "UF": "Bahia", "latitude": -14.2711, "longitude": -42.257}, {"nome": "Itanagra", "UF": "Bahia", "latitude": -12.2614, "longitude": -38.0436}, {"nome": "Nova Itarana", "UF": "Bahia", "latitude": -13.0241, "longitude": -40.0653}, {"nome": "Iaçu", "UF": "Bahia", "latitude": -12.7666, "longitude": -40.2056}, {"nome": "Itanhém", "UF": "Bahia", "latitude": -17.1642, "longitude": -40.3321}, {"nome": "Heliópolis", "UF": "Bahia", "latitude": -10.6825, "longitude": -38.2907}, {"nome": "Guanambi", "UF": "Bahia", "latitude": -14.2231, "longitude": -42.7799}, {"nome": "São Miguel das Matas", "UF": "Bahia", "latitude": -13.0434, "longitude": -39.4578}, {"nome": "Itapé", "UF": "Bahia", "latitude": -14.8876, "longitude": -39.4239}, {"nome": "Ibicoara", "UF": "Bahia", "latitude": -13.4059, "longitude": -41.284}, {"nome": "Itapebi", "UF": "Bahia", "latitude": -15.9551, "longitude": -39.5329}, {"nome": "Nazaré", "UF": "Bahia", "latitude": -13.0235, "longitude": -39.0108}, {"nome": "Itapetinga", "UF": "Bahia", "latitude": -15.2475, "longitude": -40.2482}, {"nome": "Nova Redenção", "UF": "Bahia", "latitude": -12.815, "longitude": -41.0748}, {"nome": "Itapicuru", "UF": "Bahia", "latitude": -11.3088, "longitude": -38.2262}, {"nome": "Conceição do Jacuípe", "UF": "Bahia", "latitude": -12.3268, "longitude": -38.7684}, {"nome": "Cordeiros", "UF": "Bahia", "latitude": -15.0356, "longitude": -41.9308}, {"nome": "Conceição do Almeida", "UF": "Bahia", "latitude": -12.7836, "longitude": -39.1715}, {"nome": "Tremedal", "UF": "Bahia", "latitude": -14.9736, "longitude": -41.4142}, {"nome": "Mairi", "UF": "Bahia", "latitude": -11.7107, "longitude": -40.1437}, {"nome": "Cachoeira", "UF": "Bahia", "latitude": -12.5994, "longitude": -38.9587}, {"nome": "Guaratinga", "UF": "Bahia", "latitude": -16.5833, "longitude": -39.7847}, {"nome": "Ibicuí", "UF": "Bahia", "latitude": -14.845, "longitude": -39.9879}, {"nome": "Itaparica", "UF": "Bahia", "latitude": -12.8932, "longitude": -38.68}, {"nome": "Guajeru", "UF": "Bahia", "latitude": -14.5467, "longitude": -41.9381}, {"nome": "Santa Maria da Vitória", "UF": "Bahia", "latitude": -13.3859, "longitude": -44.2011}, {"nome": "Ibipeba", "UF": "Bahia", "latitude": -11.6438, "longitude": -42.0195}, {"nome": "Nova Viçosa", "UF": "Bahia", "latitude": -17.8926, "longitude": -39.3743}, {"nome": "Santa Cruz Cabrália", "UF": "Bahia", "latitude": -16.2825, "longitude": -39.0295}, {"nome": "Itapitanga", "UF": "Bahia", "latitude": -14.4139, "longitude": -39.5657}, {"nome": "Planaltino", "UF": "Bahia", "latitude": -13.2618, "longitude": -40.3695}, {"nome": "Governador Mangabeira", "UF": "Bahia", "latitude": -12.5994, "longitude": -39.0412}, {"nome": "Gongogi", "UF": "Bahia", "latitude": -14.3195, "longitude": -39.469}, {"nome": "Novo Horizonte", "UF": "Bahia", "latitude": -12.8083, "longitude": -42.1682}, {"nome": "Glória", "UF": "Bahia", "latitude": -9.34382, "longitude": -38.2544}, {"nome": "Itarantim", "UF": "Bahia", "latitude": -15.6528, "longitude": -40.065}, {"nome": "Itatim", "UF": "Bahia", "latitude": -12.7099, "longitude": -39.6952}, {"nome": "Mutuípe", "UF": "Bahia", "latitude": -13.2284, "longitude": -39.5044}, {"nome": "Gentio do Ouro", "UF": "Bahia", "latitude": -11.4342, "longitude": -42.5077}, {"nome": "Santa Brígida", "UF": "Bahia", "latitude": -9.73227, "longitude": -38.1209}, {"nome": "Gavião", "UF": "Bahia", "latitude": -11.4688, "longitude": -39.7757}, {"nome": "São Sebastião do Passé", "UF": "Bahia", "latitude": -12.5123, "longitude": -38.4905}, {"nome": "Gandu", "UF": "Bahia", "latitude": -13.7441, "longitude": -39.4747}, {"nome": "Muritiba", "UF": "Bahia", "latitude": -12.6329, "longitude": -38.9921}, {"nome": "Novo Triunfo", "UF": "Bahia", "latitude": -10.3182, "longitude": -38.4014}, {"nome": "Formosa do Rio Preto", "UF": "Bahia", "latitude": -11.0328, "longitude": -45.193}, {"nome": "Santa Cruz da Vitória", "UF": "Bahia", "latitude": -14.964, "longitude": -39.8115}, {"nome": "Nova Soure", "UF": "Bahia", "latitude": -11.2329, "longitude": -38.4871}, {"nome": "Pilão Arcado", "UF": "Bahia", "latitude": -10.0051, "longitude": -42.4936}, {"nome": "Cabaceiras do Paraguaçu", "UF": "Bahia", "latitude": -12.5317, "longitude": -39.1902}, {"nome": "Itaquara", "UF": "Bahia", "latitude": -13.4459, "longitude": -39.9378}, {"nome": "Malhada", "UF": "Bahia", "latitude": -14.3371, "longitude": -43.7686}, {"nome": "Caldeirão Grande", "UF": "Bahia", "latitude": -11.0208, "longitude": -40.2956}, {"nome": "Macururé", "UF": "Bahia", "latitude": -9.16226, "longitude": -39.0518}, {"nome": "Cairu", "UF": "Bahia", "latitude": -13.4904, "longitude": -39.0465}, {"nome": "Madre de Deus", "UF": "Bahia", "latitude": -12.7446, "longitude": -38.6153}, {"nome": "Piatã", "UF": "Bahia", "latitude": -13.1465, "longitude": -41.7702}, {"nome": "Cafarnaum", "UF": "Bahia", "latitude": -11.6914, "longitude": -41.4688}, {"nome": "Caetité", "UF": "Bahia", "latitude": -14.0684, "longitude": -42.4861}, {"nome": "Caetanos", "UF": "Bahia", "latitude": -14.3347, "longitude": -40.9175}, {"nome": "Rio de Contas", "UF": "Bahia", "latitude": -13.5852, "longitude": -41.8048}, {"nome": "Botuporã", "UF": "Bahia", "latitude": -13.3772, "longitude": -42.5163}, {"nome": "Maetinga", "UF": "Bahia", "latitude": -14.6623, "longitude": -41.4915}, {"nome": "Canápolis", "UF": "Bahia", "latitude": -13.0725, "longitude": -44.201}, {"nome": "Santanópolis", "UF": "Bahia", "latitude": -12.0311, "longitude": -38.8694}, {"nome": "Medeiros Neto", "UF": "Bahia", "latitude": -17.3707, "longitude": -40.2238}, {"nome": "Uauá", "UF": "Bahia", "latitude": -9.83325, "longitude": -39.4794}, {"nome": "Ubaíra", "UF": "Bahia", "latitude": -13.2714, "longitude": -39.666}, {"nome": "Ubaitaba", "UF": "Bahia", "latitude": -14.303, "longitude": -39.3222}, {"nome": "Ribeira do Pombal", "UF": "Bahia", "latitude": -10.8373, "longitude": -38.5382}, {"nome": "Mascote", "UF": "Bahia", "latitude": -15.5542, "longitude": -39.3016}, {"nome": "Ubatã", "UF": "Bahia", "latitude": -14.2063, "longitude": -39.5207}, {"nome": "Biritinga", "UF": "Bahia", "latitude": -11.6072, "longitude": -38.8051}, {"nome": "Caatiba", "UF": "Bahia", "latitude": -14.9699, "longitude": -40.4092}, {"nome": "Belmonte", "UF": "Bahia", "latitude": -15.8608, "longitude": -38.8758}, {"nome": "Camacan", "UF": "Bahia", "latitude": -15.4142, "longitude": -39.4919}, {"nome": "Belo Campo", "UF": "Bahia", "latitude": -15.0334, "longitude": -41.2652}, {"nome": "Conceição da Feira", "UF": "Bahia", "latitude": -12.5078, "longitude": -38.9978}, {"nome": "Camamu", "UF": "Bahia", "latitude": -13.9398, "longitude": -39.1071}, {"nome": "Buritirama", "UF": "Bahia", "latitude": -10.7171, "longitude": -43.6302}, {"nome": "Caculé", "UF": "Bahia", "latitude": -14.5003, "longitude": -42.2229}, {"nome": "Pindaí", "UF": "Bahia", "latitude": -14.4921, "longitude": -42.686}, {"nome": "Rio do Pires", "UF": "Bahia", "latitude": -13.1185, "longitude": -42.2902}, {"nome": "Brumado", "UF": "Bahia", "latitude": -14.2021, "longitude": -41.6696}, {"nome": "Brotas de Macaúbas", "UF": "Bahia", "latitude": -11.9915, "longitude": -42.6326}, {"nome": "Brejolândia", "UF": "Bahia", "latitude": -12.4815, "longitude": -43.9679}, {"nome": "Brejões", "UF": "Bahia", "latitude": -13.1039, "longitude": -39.7988}, {"nome": "Pindobaçu", "UF": "Bahia", "latitude": -10.7433, "longitude": -40.3675}, {"nome": "Buerarema", "UF": "Bahia", "latitude": -14.9595, "longitude": -39.3028}, {"nome": "Maiquinique", "UF": "Bahia", "latitude": -15.624, "longitude": -40.2587}, {"nome": "Santana", "UF": "Bahia", "latitude": -12.9792, "longitude": -44.0506}, {"nome": "Rio do Antônio", "UF": "Bahia", "latitude": -14.4071, "longitude": -42.0721}, {"nome": "Macarani", "UF": "Bahia", "latitude": -15.5646, "longitude": -40.4209}, {"nome": "Campo Alegre de Lourdes", "UF": "Bahia", "latitude": -9.52221, "longitude": -43.0126}, {"nome": "Campo Formoso", "UF": "Bahia", "latitude": -10.5105, "longitude": -40.32}, {"nome": "Malhada de Pedras", "UF": "Bahia", "latitude": -14.3847, "longitude": -41.8842}, {"nome": "Mirangaba", "UF": "Bahia", "latitude": -10.961, "longitude": -40.574}, {"nome": "Terra Nova", "UF": "Bahia", "latitude": -12.3888, "longitude": -38.6238}, {"nome": "Camaçari", "UF": "Bahia", "latitude": -12.6996, "longitude": -38.3263}, {"nome": "Pintadas", "UF": "Bahia", "latitude": -11.8117, "longitude": -39.9009}, {"nome": "Caém", "UF": "Bahia", "latitude": -11.0677, "longitude": -40.432}, {"nome": "Itatira", "UF": "Ceará", "latitude": -4.52608, "longitude": -39.6202}, {"nome": "Groaíras", "UF": "Ceará", "latitude": -3.91787, "longitude": -40.3852}, {"nome": "Carnaubal", "UF": "Ceará", "latitude": -4.15985, "longitude": -40.9413}, {"nome": "Itarema", "UF": "Ceará", "latitude": -2.9248, "longitude": -39.9167}, {"nome": "Guaraciaba do Norte", "UF": "Ceará", "latitude": -4.15814, "longitude": -40.7476}, {"nome": "Tamboril", "UF": "Ceará", "latitude": -4.83136, "longitude": -40.3196}, {"nome": "Arneiroz", "UF": "Ceará", "latitude": -6.3165, "longitude": -40.1653}, {"nome": "Cedro", "UF": "Ceará", "latitude": -6.60034, "longitude": -39.0609}, {"nome": "Poranga", "UF": "Ceará", "latitude": -4.74672, "longitude": -40.9205}, {"nome": "Nova Russas", "UF": "Ceará", "latitude": -4.70581, "longitude": -40.5621}, {"nome": "Deputado Irapuan Pinheiro", "UF": "Ceará", "latitude": -5.91485, "longitude": -39.257}, {"nome": "Itapajé", "UF": "Ceará", "latitude": -3.68314, "longitude": -39.5855}, {"nome": "Itaitinga", "UF": "Ceará", "latitude": -3.96577, "longitude": -38.5298}, {"nome": "Catarina", "UF": "Ceará", "latitude": -6.12291, "longitude": -39.8736}, {"nome": "Redenção", "UF": "Ceará", "latitude": -4.21587, "longitude": -38.7277}, {"nome": "São João do Jaguaribe", "UF": "Ceará", "latitude": -5.27516, "longitude": -38.2694}, {"nome": "Itapipoca", "UF": "Ceará", "latitude": -3.49933, "longitude": -39.5836}, {"nome": "São Gonçalo do Amarante", "UF": "Ceará", "latitude": -3.60515, "longitude": -38.9726}, {"nome": "Itapiúna", "UF": "Ceará", "latitude": -4.55516, "longitude": -38.9281}, {"nome": "Caucaia", "UF": "Ceará", "latitude": -3.72797, "longitude": -38.6619}, {"nome": "Catunda", "UF": "Ceará", "latitude": -4.64336, "longitude": -40.2}, {"nome": "Cariús", "UF": "Ceará", "latitude": -6.52428, "longitude": -39.4916}, {"nome": "Quixeramobim", "UF": "Ceará", "latitude": -5.19067, "longitude": -39.2889}, {"nome": "Iguatu", "UF": "Ceará", "latitude": -6.36281, "longitude": -39.2892}, {"nome": "Guaiúba", "UF": "Ceará", "latitude": -4.04057, "longitude": -38.6404}, {"nome": "Croatá", "UF": "Ceará", "latitude": -4.40481, "longitude": -40.9022}, {"nome": "Icó", "UF": "Ceará", "latitude": -6.39627, "longitude": -38.8554}, {"nome": "Jaguaretama", "UF": "Ceará", "latitude": -5.6051, "longitude": -38.7639}, {"nome": "Guaramiranga", "UF": "Ceará", "latitude": -4.26248, "longitude": -38.932}, {"nome": "Várzea Alegre", "UF": "Ceará", "latitude": -6.78264, "longitude": -39.2942}, {"nome": "Granjeiro", "UF": "Ceará", "latitude": -6.88134, "longitude": -39.2144}, {"nome": "Granja", "UF": "Ceará", "latitude": -3.12788, "longitude": -40.8372}, {"nome": "Mulungu", "UF": "Ceará", "latitude": -4.30294, "longitude": -38.9951}, {"nome": "Potiretama", "UF": "Ceará", "latitude": -5.71287, "longitude": -38.1578}, {"nome": "Quixeré", "UF": "Ceará", "latitude": -5.07148, "longitude": -37.9802}, {"nome": "Caririaçu", "UF": "Ceará", "latitude": -7.02808, "longitude": -39.2828}, {"nome": "Ocara", "UF": "Ceará", "latitude": -4.48523, "longitude": -38.5933}, {"nome": "Caridade", "UF": "Ceará", "latitude": -4.22514, "longitude": -39.1912}, {"nome": "Assaré", "UF": "Ceará", "latitude": -6.8669, "longitude": -39.8689}, {"nome": "Graça", "UF": "Ceará", "latitude": -4.04422, "longitude": -40.749}, {"nome": "Palmácia", "UF": "Ceará", "latitude": -4.13831, "longitude": -38.8446}, {"nome": "Pedra Branca", "UF": "Ceará", "latitude": -5.45341, "longitude": -39.7078}, {"nome": "Tarrafas", "UF": "Ceará", "latitude": -6.67838, "longitude": -39.753}, {"nome": "Altaneira", "UF": "Ceará", "latitude": -6.99837, "longitude": -39.7356}, {"nome": "Cascavel", "UF": "Ceará", "latitude": -4.12967, "longitude": -38.2412}, {"nome": "Fortaleza", "UF": "Ceará", "latitude": -3.71664, "longitude": -38.5423}, {"nome": "Pindoretama", "UF": "Ceará", "latitude": -4.01584, "longitude": -38.3061}, {"nome": "Barreira", "UF": "Ceará", "latitude": -4.28921, "longitude": -38.6429}, {"nome": "Umari", "UF": "Ceará", "latitude": -6.63893, "longitude": -38.7008}, {"nome": "Quiterianópolis", "UF": "Ceará", "latitude": -5.8425, "longitude": -40.7002}, {"nome": "Bela Cruz", "UF": "Ceará", "latitude": -3.04996, "longitude": -40.1671}, {"nome": "Abaiara", "UF": "Ceará", "latitude": -7.34588, "longitude": -39.0416}, {"nome": "Maranguape", "UF": "Ceará", "latitude": -3.89143, "longitude": -38.6829}, {"nome": "Barbalha", "UF": "Ceará", "latitude": -7.2982, "longitude": -39.3021}, {"nome": "Ubajara", "UF": "Ceará", "latitude": -3.85448, "longitude": -40.9204}, {"nome": "Tururu", "UF": "Ceará", "latitude": -3.58413, "longitude": -39.4297}, {"nome": "Missão Velha", "UF": "Ceará", "latitude": -7.23522, "longitude": -39.143}, {"nome": "Acaraú", "UF": "Ceará", "latitude": -2.88769, "longitude": -40.1183}, {"nome": "Barro", "UF": "Ceará", "latitude": -7.17188, "longitude": -38.7741}, {"nome": "Martinópole", "UF": "Ceará", "latitude": -3.2252, "longitude": -40.6896}, {"nome": "Meruoca", "UF": "Ceará", "latitude": -3.53974, "longitude": -40.4531}, {"nome": "Santana do Cariri", "UF": "Ceará", "latitude": -7.17613, "longitude": -39.7302}, {"nome": "Aquiraz", "UF": "Ceará", "latitude": -3.89929, "longitude": -38.3896}, {"nome": "Aracati", "UF": "Ceará", "latitude": -4.55826, "longitude": -37.7679}, {"nome": "Santana do Acaraú", "UF": "Ceará", "latitude": -3.46144, "longitude": -40.2118}, {"nome": "Coreaú", "UF": "Ceará", "latitude": -3.5415, "longitude": -40.6587}, {"nome": "Eusébio", "UF": "Ceará", "latitude": -3.8925, "longitude": -38.4559}, {"nome": "Fortim", "UF": "Ceará", "latitude": -4.45126, "longitude": -37.7981}, {"nome": "Apuiarés", "UF": "Ceará", "latitude": -3.94506, "longitude": -39.4359}, {"nome": "Miraíma", "UF": "Ceará", "latitude": -3.56867, "longitude": -39.9663}, {"nome": "Ararendá", "UF": "Ceará", "latitude": -4.74567, "longitude": -40.831}, {"nome": "Maracanaú", "UF": "Ceará", "latitude": -3.86699, "longitude": -38.6259}, {"nome": "Mauriti", "UF": "Ceará", "latitude": -7.38597, "longitude": -38.7708}, {"nome": "Umirim", "UF": "Ceará", "latitude": -3.67654, "longitude": -39.3465}, {"nome": "Boa Viagem", "UF": "Ceará", "latitude": -5.11258, "longitude": -39.7337}, {"nome": "Massapê", "UF": "Ceará", "latitude": -3.52364, "longitude": -40.3423}, {"nome": "Forquilha", "UF": "Ceará", "latitude": -3.79945, "longitude": -40.2634}, {"nome": "Milagres", "UF": "Ceará", "latitude": -7.29749, "longitude": -38.9378}, {"nome": "Barroquinha", "UF": "Ceará", "latitude": -3.02051, "longitude": -41.1358}, {"nome": "Varjota", "UF": "Ceará", "latitude": -4.19387, "longitude": -40.4741}, {"nome": "Piquet Carneiro", "UF": "Ceará", "latitude": -5.80025, "longitude": -39.417}, {"nome": "Marco", "UF": "Ceará", "latitude": -3.1285, "longitude": -40.1582}, {"nome": "Pires Ferreira", "UF": "Ceará", "latitude": -4.23922, "longitude": -40.6442}, {"nome": "Acarape", "UF": "Ceará", "latitude": -4.22083, "longitude": -38.7055}, {"nome": "Milhã", "UF": "Ceará", "latitude": -5.67252, "longitude": -39.1875}, {"nome": "Acopiara", "UF": "Ceará", "latitude": -6.08911, "longitude": -39.448}, {"nome": "Orós", "UF": "Ceará", "latitude": -6.25182, "longitude": -38.9053}, {"nome": "Beberibe", "UF": "Ceará", "latitude": -4.17741, "longitude": -38.1271}, {"nome": "Madalena", "UF": "Ceará", "latitude": -4.84601, "longitude": -39.5725}, {"nome": "Baturité", "UF": "Ceará", "latitude": -4.32598, "longitude": -38.8812}, {"nome": "Farias Brito", "UF": "Ceará", "latitude": -6.92146, "longitude": -39.5651}, {"nome": "Amontada", "UF": "Ceará", "latitude": -3.36017, "longitude": -39.8288}, {"nome": "Morrinhos", "UF": "Ceará", "latitude": -3.23426, "longitude": -40.1233}, {"nome": "Paramoti", "UF": "Ceará", "latitude": -4.08815, "longitude": -39.2417}, {"nome": "Lavras da Mangabeira", "UF": "Ceará", "latitude": -6.7448, "longitude": -38.9706}, {"nome": "Sobral", "UF": "Ceará", "latitude": -3.68913, "longitude": -40.3482}, {"nome": "Mombaça", "UF": "Ceará", "latitude": -5.73844, "longitude": -39.63}, {"nome": "Senador Pompeu", "UF": "Ceará", "latitude": -5.58244, "longitude": -39.3704}, {"nome": "Limoeiro do Norte", "UF": "Ceará", "latitude": -5.14392, "longitude": -38.0847}, {"nome": "Ererê", "UF": "Ceará", "latitude": -6.02751, "longitude": -38.3461}, {"nome": "Aracoiaba", "UF": "Ceará", "latitude": -4.36872, "longitude": -38.8125}, {"nome": "Brejo Santo", "UF": "Ceará", "latitude": -7.48469, "longitude": -38.9799}, {"nome": "São Benedito", "UF": "Ceará", "latitude": -4.04713, "longitude": -40.8596}, {"nome": "Quixadá", "UF": "Ceará", "latitude": -4.9663, "longitude": -39.0155}, {"nome": "Pacoti", "UF": "Ceará", "latitude": -4.22492, "longitude": -38.922}, {"nome": "Pacujá", "UF": "Ceará", "latitude": -3.98327, "longitude": -40.6989}, {"nome": "Uruburetama", "UF": "Ceará", "latitude": -3.62316, "longitude": -39.5107}, {"nome": "Uruoca", "UF": "Ceará", "latitude": -3.30819, "longitude": -40.5628}, {"nome": "Pentecoste", "UF": "Ceará", "latitude": -3.79274, "longitude": -39.2692}, {"nome": "Tianguá", "UF": "Ceará", "latitude": -3.72965, "longitude": -40.9923}, {"nome": "General Sampaio", "UF": "Ceará", "latitude": -4.04351, "longitude": -39.454}, {"nome": "Antonina do Norte", "UF": "Ceará", "latitude": -6.76919, "longitude": -39.987}, {"nome": "Potengi", "UF": "Ceará", "latitude": -7.09154, "longitude": -40.0233}, {"nome": "Banabuiú", "UF": "Ceará", "latitude": -5.30454, "longitude": -38.9132}, {"nome": "Camocim", "UF": "Ceará", "latitude": -2.9005, "longitude": -40.8544}, {"nome": "Pacajus", "UF": "Ceará", "latitude": -4.17107, "longitude": -38.465}, {"nome": "Frecheirinha", "UF": "Ceará", "latitude": -3.75557, "longitude": -40.818}, {"nome": "Mucambo", "UF": "Ceará", "latitude": -3.90271, "longitude": -40.7452}, {"nome": "Tejuçuoca", "UF": "Ceará", "latitude": -3.98831, "longitude": -39.5799}, {"nome": "Jijoca de Jericoacoara", "UF": "Ceará", "latitude": -2.79331, "longitude": -40.5127}, {"nome": "Moraújo", "UF": "Ceará", "latitude": -3.46311, "longitude": -40.6776}, {"nome": "Quixelô", "UF": "Ceará", "latitude": -6.24637, "longitude": -39.2011}, {"nome": "Jardim", "UF": "Ceará", "latitude": -7.57599, "longitude": -39.2826}, {"nome": "Jaguaribara", "UF": "Ceará", "latitude": -5.67765, "longitude": -38.5359}, {"nome": "Palhano", "UF": "Ceará", "latitude": -4.73672, "longitude": -37.9655}, {"nome": "Jaguaruana", "UF": "Ceará", "latitude": -4.83151, "longitude": -37.781}, {"nome": "Canindé", "UF": "Ceará", "latitude": -4.35162, "longitude": -39.3155}, {"nome": "Santa Quitéria", "UF": "Ceará", "latitude": -4.32608, "longitude": -40.1523}, {"nome": "Aurora", "UF": "Ceará", "latitude": -6.93349, "longitude": -38.9742}, {"nome": "Jaguaribe", "UF": "Ceará", "latitude": -5.90213, "longitude": -38.6227}, {"nome": "Crato", "UF": "Ceará", "latitude": -7.2153, "longitude": -39.4103}, {"nome": "Jati", "UF": "Ceará", "latitude": -7.6797, "longitude": -39.0029}, {"nome": "Campos Sales", "UF": "Ceará", "latitude": -7.06761, "longitude": -40.3687}, {"nome": "Morada Nova", "UF": "Ceará", "latitude": -5.09736, "longitude": -38.3702}, {"nome": "Pacatuba", "UF": "Ceará", "latitude": -3.9784, "longitude": -38.6183}, {"nome": "Monsenhor Tabosa", "UF": "Ceará", "latitude": -4.79102, "longitude": -40.0646}, {"nome": "Trairi", "UF": "Ceará", "latitude": -3.26932, "longitude": -39.2681}, {"nome": "Penaforte", "UF": "Ceará", "latitude": -7.82163, "longitude": -39.0707}, {"nome": "Senador Sá", "UF": "Ceará", "latitude": -3.35305, "longitude": -40.4662}, {"nome": "Tauá", "UF": "Ceará", "latitude": -5.98585, "longitude": -40.2968}, {"nome": "Chaval", "UF": "Ceará", "latitude": -3.03571, "longitude": -41.2435}, {"nome": "Porteiras", "UF": "Ceará", "latitude": -7.52265, "longitude": -39.114}, {"nome": "Tabuleiro do Norte", "UF": "Ceará", "latitude": -5.24353, "longitude": -38.1282}, {"nome": "Independência", "UF": "Ceará", "latitude": -5.38789, "longitude": -40.3085}, {"nome": "Hidrolândia", "UF": "Ceará", "latitude": -4.40958, "longitude": -40.4056}, {"nome": "Horizonte", "UF": "Ceará", "latitude": -4.1209, "longitude": -38.4707}, {"nome": "Cruz", "UF": "Ceará", "latitude": -2.91813, "longitude": -40.176}, {"nome": "Crateús", "UF": "Ceará", "latitude": -5.16768, "longitude": -40.6536}, {"nome": "Paracuru", "UF": "Ceará", "latitude": -3.41436, "longitude": -39.03}, {"nome": "Ibiapina", "UF": "Ceará", "latitude": -3.92403, "longitude": -40.8911}, {"nome": "Ibicuitinga", "UF": "Ceará", "latitude": -4.96999, "longitude": -38.6362}, {"nome": "Araripe", "UF": "Ceará", "latitude": -7.21319, "longitude": -40.1359}, {"nome": "Ibaretama", "UF": "Ceará", "latitude": -4.80376, "longitude": -38.7501}, {"nome": "Paraipaba", "UF": "Ceará", "latitude": -3.43799, "longitude": -39.1479}, {"nome": "São Luís do Curu", "UF": "Ceará", "latitude": -3.66976, "longitude": -39.2391}, {"nome": "Itaiçaba", "UF": "Ceará", "latitude": -4.67146, "longitude": -37.833}, {"nome": "Novo Oriente", "UF": "Ceará", "latitude": -5.52552, "longitude": -40.7713}, {"nome": "Parambu", "UF": "Ceará", "latitude": -6.20768, "longitude": -40.6905}, {"nome": "Aratuba", "UF": "Ceará", "latitude": -4.41229, "longitude": -39.0471}, {"nome": "Alto Santo", "UF": "Ceará", "latitude": -5.50894, "longitude": -38.2743}, {"nome": "Choró", "UF": "Ceará", "latitude": -4.83906, "longitude": -39.1344}, {"nome": "Icapuí", "UF": "Ceará", "latitude": -4.71206, "longitude": -37.3531}, {"nome": "Saboeiro", "UF": "Ceará", "latitude": -6.5346, "longitude": -39.9017}, {"nome": "Chorozinho", "UF": "Ceará", "latitude": -4.28873, "longitude": -38.4986}, {"nome": "Juazeiro do Norte", "UF": "Ceará", "latitude": -7.19621, "longitude": -39.3076}, {"nome": "Salitre", "UF": "Ceará", "latitude": -7.28398, "longitude": -40.45}, {"nome": "Baixio", "UF": "Ceará", "latitude": -6.71945, "longitude": -38.7134}, {"nome": "Aiuaba", "UF": "Ceará", "latitude": -6.57122, "longitude": -40.1178}, {"nome": "Reriutaba", "UF": "Ceará", "latitude": -4.14191, "longitude": -40.5759}, {"nome": "Alcântaras", "UF": "Ceará", "latitude": -3.58537, "longitude": -40.5479}, {"nome": "Pereiro", "UF": "Ceará", "latitude": -6.03576, "longitude": -38.4624}, {"nome": "Cariré", "UF": "Ceará", "latitude": -3.94858, "longitude": -40.476}, {"nome": "Capistrano", "UF": "Ceará", "latitude": -4.45569, "longitude": -38.9048}, {"nome": "Jucás", "UF": "Ceará", "latitude": -6.51523, "longitude": -39.5187}, {"nome": "Viçosa do Ceará", "UF": "Ceará", "latitude": -3.5667, "longitude": -41.0916}, {"nome": "Russas", "UF": "Ceará", "latitude": -4.92673, "longitude": -37.9721}, {"nome": "Iracema", "UF": "Ceará", "latitude": -5.8124, "longitude": -38.2919}, {"nome": "Ipueiras", "UF": "Ceará", "latitude": -4.53802, "longitude": -40.7118}, {"nome": "Ipu", "UF": "Ceará", "latitude": -4.31748, "longitude": -40.7059}, {"nome": "Nova Olinda", "UF": "Ceará", "latitude": -7.08415, "longitude": -39.6713}, {"nome": "Ipaporanga", "UF": "Ceará", "latitude": -4.89764, "longitude": -40.7537}, {"nome": "Solonópole", "UF": "Ceará", "latitude": -5.71894, "longitude": -39.0107}, {"nome": "Ipaumirim", "UF": "Ceará", "latitude": -6.78265, "longitude": -38.7179}, {"nome": "Irauçuba", "UF": "Ceará", "latitude": -3.74737, "longitude": -39.7843}, {"nome": "Brasília", "UF": "Distrito Federal", "latitude": -15.7795, "longitude": -47.9297}, {"nome": "Vitória", "UF": "Espírito Santo", "latitude": -20.3155, "longitude": -40.3128}, {"nome": "Colatina", "UF": "Espírito Santo", "latitude": -19.5493, "longitude": -40.6269}, {"nome": "Alfredo Chaves", "UF": "Espírito Santo", "latitude": -20.6396, "longitude": -40.7543}, {"nome": "São José do Calçado", "UF": "Espírito Santo", "latitude": -21.0274, "longitude": -41.6636}, {"nome": "Brejetuba", "UF": "Espírito Santo", "latitude": -20.1395, "longitude": -41.2954}, {"nome": "Pancas", "UF": "Espírito Santo", "latitude": -19.2229, "longitude": -40.8534}, {"nome": "Vargem Alta", "UF": "Espírito Santo", "latitude": -20.669, "longitude": -41.0179}, {"nome": "Sooretama", "UF": "Espírito Santo", "latitude": -19.1897, "longitude": -40.0974}, {"nome": "Piúma", "UF": "Espírito Santo", "latitude": -20.8334, "longitude": -40.7268}, {"nome": "Conceição do Castelo", "UF": "Espírito Santo", "latitude": -20.3639, "longitude": -41.2417}, {"nome": "São Mateus", "UF": "Espírito Santo", "latitude": -18.7214, "longitude": -39.8579}, {"nome": "Linhares", "UF": "Espírito Santo", "latitude": -19.3946, "longitude": -40.0643}, {"nome": "Conceição da Barra", "UF": "Espírito Santo", "latitude": -18.5883, "longitude": -39.7362}, {"nome": "Pedro Canário", "UF": "Espírito Santo", "latitude": -18.3004, "longitude": -39.9574}, {"nome": "Santa Teresa", "UF": "Espírito Santo", "latitude": -19.9363, "longitude": -40.5979}, {"nome": "Itarana", "UF": "Espírito Santo", "latitude": -19.875, "longitude": -40.8753}, {"nome": "Guaçuí", "UF": "Espírito Santo", "latitude": -20.7668, "longitude": -41.6734}, {"nome": "Guarapari", "UF": "Espírito Santo", "latitude": -20.6772, "longitude": -40.5093}, {"nome": "Boa Esperança", "UF": "Espírito Santo", "latitude": -18.5395, "longitude": -40.3025}, {"nome": "Castelo", "UF": "Espírito Santo", "latitude": -20.6033, "longitude": -41.2031}, {"nome": "Santa Leopoldina", "UF": "Espírito Santo", "latitude": -20.0999, "longitude": -40.527}, {"nome": "Itaguaçu", "UF": "Espírito Santo", "latitude": -19.8018, "longitude": -40.8601}, {"nome": "Irupi", "UF": "Espírito Santo", "latitude": -20.3501, "longitude": -41.6444}, {"nome": "Domingos Martins", "UF": "Espírito Santo", "latitude": -20.3603, "longitude": -40.6594}, {"nome": "Afonso Cláudio", "UF": "Espírito Santo", "latitude": -20.0778, "longitude": -41.1261}, {"nome": "Mimoso do Sul", "UF": "Espírito Santo", "latitude": -21.0628, "longitude": -41.3615}, {"nome": "Água Doce do Norte", "UF": "Espírito Santo", "latitude": -18.5482, "longitude": -40.9854}, {"nome": "Vila Pavão", "UF": "Espírito Santo", "latitude": -18.6091, "longitude": -40.609}, {"nome": "Iconha", "UF": "Espírito Santo", "latitude": -20.7913, "longitude": -40.8132}, {"nome": "Jaguaré", "UF": "Espírito Santo", "latitude": -18.907, "longitude": -40.0759}, {"nome": "Vila Valério", "UF": "Espírito Santo", "latitude": -18.9958, "longitude": -40.3849}, {"nome": "Pinheiros", "UF": "Espírito Santo", "latitude": -18.4141, "longitude": -40.2171}, {"nome": "Laranja da Terra", "UF": "Espírito Santo", "latitude": -19.8994, "longitude": -41.0621}, {"nome": "Rio Bananal", "UF": "Espírito Santo", "latitude": -19.2719, "longitude": -40.3366}, {"nome": "Mucurici", "UF": "Espírito Santo", "latitude": -18.0965, "longitude": -40.52}, {"nome": "Santa Maria de Jetibá", "UF": "Espírito Santo", "latitude": -20.0253, "longitude": -40.7439}, {"nome": "Baixo Guandu", "UF": "Espírito Santo", "latitude": -19.5213, "longitude": -41.0109}, {"nome": "Barra de São Francisco", "UF": "Espírito Santo", "latitude": -18.7548, "longitude": -40.8965}, {"nome": "São Gabriel da Palha", "UF": "Espírito Santo", "latitude": -19.0182, "longitude": -40.5365}, {"nome": "Muniz Freire", "UF": "Espírito Santo", "latitude": -20.4652, "longitude": -41.4156}, {"nome": "Nova Venécia", "UF": "Espírito Santo", "latitude": -18.715, "longitude": -40.4053}, {"nome": "Iúna", "UF": "Espírito Santo", "latitude": -20.3531, "longitude": -41.5334}, {"nome": "Vila Velha", "UF": "Espírito Santo", "latitude": -20.3417, "longitude": -40.2875}, {"nome": "Presidente Kennedy", "UF": "Espírito Santo", "latitude": -21.0964, "longitude": -41.0468}, {"nome": "Serra", "UF": "Espírito Santo", "latitude": -20.121, "longitude": -40.3074}, {"nome": "Apiacá", "UF": "Espírito Santo", "latitude": -21.1523, "longitude": -41.5693}, {"nome": "São Roque do Canaã", "UF": "Espírito Santo", "latitude": -19.7411, "longitude": -40.6526}, {"nome": "Marechal Floriano", "UF": "Espírito Santo", "latitude": -20.4159, "longitude": -40.67}, {"nome": "Muqui", "UF": "Espírito Santo", "latitude": -20.9509, "longitude": -41.346}, {"nome": "Montanha", "UF": "Espírito Santo", "latitude": -18.1303, "longitude": -40.3668}, {"nome": "Jerônimo Monteiro", "UF": "Espírito Santo", "latitude": -20.7994, "longitude": -41.3948}, {"nome": "São Domingos do Norte", "UF": "Espírito Santo", "latitude": -19.1452, "longitude": -40.6281}, {"nome": "Atilio Vivacqua", "UF": "Espírito Santo", "latitude": -20.913, "longitude": -41.1986}, {"nome": "Anchieta", "UF": "Espírito Santo", "latitude": -20.7955, "longitude": -40.6425}, {"nome": "Águia Branca", "UF": "Espírito Santo", "latitude": -18.9846, "longitude": -40.7437}, {"nome": "Alegre", "UF": "Espírito Santo", "latitude": -20.758, "longitude": -41.5382}, {"nome": "Aracruz", "UF": "Espírito Santo", "latitude": -19.82, "longitude": -40.2764}, {"nome": "Viana", "UF": "Espírito Santo", "latitude": -20.3825, "longitude": -40.4933}, {"nome": "João Neiva", "UF": "Espírito Santo", "latitude": -19.7577, "longitude": -40.386}, {"nome": "Mantenópolis", "UF": "Espírito Santo", "latitude": -18.8594, "longitude": -41.124}, {"nome": "Divino de São Lourenço", "UF": "Espírito Santo", "latitude": -20.6229, "longitude": -41.6937}, {"nome": "Itapemirim", "UF": "Espírito Santo", "latitude": -21.0095, "longitude": -40.8307}, {"nome": "Ibitirama", "UF": "Espírito Santo", "latitude": -20.5466, "longitude": -41.6667}, {"nome": "Alto Rio Novo", "UF": "Espírito Santo", "latitude": -19.0618, "longitude": -41.0209}, {"nome": "Bom Jesus do Norte", "UF": "Espírito Santo", "latitude": -21.1173, "longitude": -41.6731}, {"nome": "Cachoeiro de Itapemirim", "UF": "Espírito Santo", "latitude": -20.8462, "longitude": -41.1198}, {"nome": "Dores do Rio Preto", "UF": "Espírito Santo", "latitude": -20.6931, "longitude": -41.8405}, {"nome": "Rio Novo do Sul", "UF": "Espírito Santo", "latitude": -20.8556, "longitude": -40.9388}, {"nome": "Ecoporanga", "UF": "Espírito Santo", "latitude": -18.3702, "longitude": -40.836}, {"nome": "Ibatiba", "UF": "Espírito Santo", "latitude": -20.2347, "longitude": -41.5087}, {"nome": "Ibiraçu", "UF": "Espírito Santo", "latitude": -19.8366, "longitude": -40.3732}, {"nome": "Fundão", "UF": "Espírito Santo", "latitude": -19.937, "longitude": -40.4078}, {"nome": "Marataízes", "UF": "Espírito Santo", "latitude": -21.0398, "longitude": -40.8384}, {"nome": "Cariacica", "UF": "Espírito Santo", "latitude": -20.2632, "longitude": -40.4165}, {"nome": "Ponto Belo", "UF": "Espírito Santo", "latitude": -18.1253, "longitude": -40.5458}, {"nome": "Marilândia", "UF": "Espírito Santo", "latitude": -19.4114, "longitude": -40.5456}, {"nome": "Venda Nova do Imigrante", "UF": "Espírito Santo", "latitude": -20.327, "longitude": -41.1355}, {"nome": "Governador Lindenberg", "UF": "Espírito Santo", "latitude": -19.1864, "longitude": -40.4473}, {"nome": "Ouvidor", "UF": "Goiás", "latitude": -18.2277, "longitude": -47.8355}, {"nome": "Orizona", "UF": "Goiás", "latitude": -17.0334, "longitude": -48.2964}, {"nome": "Água Fria de Goiás", "UF": "Goiás", "latitude": -14.9778, "longitude": -47.7823}, {"nome": "Piracanjuba", "UF": "Goiás", "latitude": -17.302, "longitude": -49.017}, {"nome": "Buritinópolis", "UF": "Goiás", "latitude": -14.4772, "longitude": -46.4076}, {"nome": "Formosa", "UF": "Goiás", "latitude": -15.54, "longitude": -47.337}, {"nome": "Campinorte", "UF": "Goiás", "latitude": -14.3137, "longitude": -49.1511}, {"nome": "Aragarças", "UF": "Goiás", "latitude": -15.8955, "longitude": -52.2372}, {"nome": "Pilar de Goiás", "UF": "Goiás", "latitude": -14.7608, "longitude": -49.5784}, {"nome": "São Simão", "UF": "Goiás", "latitude": -18.996, "longitude": -50.547}, {"nome": "Santo Antônio do Descoberto", "UF": "Goiás", "latitude": -15.9412, "longitude": -48.2578}, {"nome": "Montividiu", "UF": "Goiás", "latitude": -17.4439, "longitude": -51.1728}, {"nome": "Gameleira de Goiás", "UF": "Goiás", "latitude": -16.4854, "longitude": -48.6454}, {"nome": "Três Ranchos", "UF": "Goiás", "latitude": -18.3539, "longitude": -47.776}, {"nome": "Campestre de Goiás", "UF": "Goiás", "latitude": -16.7624, "longitude": -49.695}, {"nome": "Uruana", "UF": "Goiás", "latitude": -15.4993, "longitude": -49.6861}, {"nome": "Campinaçu", "UF": "Goiás", "latitude": -13.787, "longitude": -48.5704}, {"nome": "Ouro Verde de Goiás", "UF": "Goiás", "latitude": -16.2181, "longitude": -49.1942}, {"nome": "Rubiataba", "UF": "Goiás", "latitude": -15.1617, "longitude": -49.8048}, {"nome": "Doverlândia", "UF": "Goiás", "latitude": -16.7188, "longitude": -52.3189}, {"nome": "Lagoa Santa", "UF": "Goiás", "latitude": -19.1832, "longitude": -51.3998}, {"nome": "Petrolina de Goiás", "UF": "Goiás", "latitude": -16.0968, "longitude": -49.3364}, {"nome": "Monte Alegre de Goiás", "UF": "Goiás", "latitude": -13.2552, "longitude": -46.8928}, {"nome": "São Luís de Montes Belos", "UF": "Goiás", "latitude": -16.5211, "longitude": -50.3726}, {"nome": "Caiapônia", "UF": "Goiás", "latitude": -16.9539, "longitude": -51.8091}, {"nome": "Mairipotaba", "UF": "Goiás", "latitude": -17.2975, "longitude": -49.4898}, {"nome": "Montes Claros de Goiás", "UF": "Goiás", "latitude": -16.0059, "longitude": -51.3979}, {"nome": "Nova Iguaçu de Goiás", "UF": "Goiás", "latitude": -14.2868, "longitude": -49.3872}, {"nome": "Alto Horizonte", "UF": "Goiás", "latitude": -14.1978, "longitude": -49.3378}, {"nome": "Iaciara", "UF": "Goiás", "latitude": -14.1011, "longitude": -46.6335}, {"nome": "Ceres", "UF": "Goiás", "latitude": -15.3061, "longitude": -49.6}, {"nome": "São Patrício", "UF": "Goiás", "latitude": -15.35, "longitude": -49.818}, {"nome": "Fazenda Nova", "UF": "Goiás", "latitude": -16.1834, "longitude": -50.7781}, {"nome": "Paranaiguara", "UF": "Goiás", "latitude": -18.9141, "longitude": -50.6539}, {"nome": "Damianópolis", "UF": "Goiás", "latitude": -14.5604, "longitude": -46.178}, {"nome": "Rialma", "UF": "Goiás", "latitude": -15.3145, "longitude": -49.5814}, {"nome": "Damolândia", "UF": "Goiás", "latitude": -16.2544, "longitude": -49.3631}, {"nome": "Nova Roma", "UF": "Goiás", "latitude": -13.7388, "longitude": -46.8734}, {"nome": "Bela Vista de Goiás", "UF": "Goiás", "latitude": -16.9693, "longitude": -48.9513}, {"nome": "Porangatu", "UF": "Goiás", "latitude": -13.4391, "longitude": -49.1503}, {"nome": "Guapó", "UF": "Goiás", "latitude": -16.8297, "longitude": -49.5345}, {"nome": "Barro Alto", "UF": "Goiás", "latitude": -14.9658, "longitude": -48.9086}, {"nome": "Itapaci", "UF": "Goiás", "latitude": -14.9522, "longitude": -49.5511}, {"nome": "Alexânia", "UF": "Goiás", "latitude": -16.0834, "longitude": -48.5076}, {"nome": "Mimoso de Goiás", "UF": "Goiás", "latitude": -15.0515, "longitude": -48.1611}, {"nome": "Indiara", "UF": "Goiás", "latitude": -17.1387, "longitude": -49.9862}, {"nome": "Aragoiânia", "UF": "Goiás", "latitude": -16.9087, "longitude": -49.4476}, {"nome": "Trindade", "UF": "Goiás", "latitude": -16.6517, "longitude": -49.4927}, {"nome": "Bonfinópolis", "UF": "Goiás", "latitude": -16.6173, "longitude": -48.9616}, {"nome": "Anápolis", "UF": "Goiás", "latitude": -16.3281, "longitude": -48.953}, {"nome": "Águas Lindas de Goiás", "UF": "Goiás", "latitude": -15.7617, "longitude": -48.2816}, {"nome": "Cristalina", "UF": "Goiás", "latitude": -16.7676, "longitude": -47.6131}, {"nome": "São Francisco de Goiás", "UF": "Goiás", "latitude": -15.9256, "longitude": -49.2605}, {"nome": "Joviânia", "UF": "Goiás", "latitude": -17.802, "longitude": -49.6197}, {"nome": "Senador Canedo", "UF": "Goiás", "latitude": -16.7084, "longitude": -49.0914}, {"nome": "Posse", "UF": "Goiás", "latitude": -14.0859, "longitude": -46.3704}, {"nome": "Quirinópolis", "UF": "Goiás", "latitude": -18.4472, "longitude": -50.4547}, {"nome": "Bonópolis", "UF": "Goiás", "latitude": -13.6329, "longitude": -49.8106}, {"nome": "Novo Planalto", "UF": "Goiás", "latitude": -13.2424, "longitude": -49.506}, {"nome": "Professor Jamil", "UF": "Goiás", "latitude": -17.2497, "longitude": -49.244}, {"nome": "Santa Rita do Novo Destino", "UF": "Goiás", "latitude": -15.1351, "longitude": -49.1203}, {"nome": "Simolândia", "UF": "Goiás", "latitude": -14.4644, "longitude": -46.4847}, {"nome": "Luziânia", "UF": "Goiás", "latitude": -16.253, "longitude": -47.95}, {"nome": "Vianópolis", "UF": "Goiás", "latitude": -16.7405, "longitude": -48.5159}, {"nome": "Morrinhos", "UF": "Goiás", "latitude": -17.7334, "longitude": -49.1059}, {"nome": "Terezópolis de Goiás", "UF": "Goiás", "latitude": -16.3945, "longitude": -49.0797}, {"nome": "Urutaí", "UF": "Goiás", "latitude": -17.4651, "longitude": -48.2015}, {"nome": "Aporé", "UF": "Goiás", "latitude": -18.9607, "longitude": -51.9232}, {"nome": "Campo Limpo de Goiás", "UF": "Goiás", "latitude": -16.2971, "longitude": -49.0895}, {"nome": "Rianápolis", "UF": "Goiás", "latitude": -15.4456, "longitude": -49.5114}, {"nome": "Jesúpolis", "UF": "Goiás", "latitude": -15.9484, "longitude": -49.3739}, {"nome": "Goiandira", "UF": "Goiás", "latitude": -18.1352, "longitude": -48.0875}, {"nome": "Uruaçu", "UF": "Goiás", "latitude": -14.5238, "longitude": -49.1396}, {"nome": "Morro Agudo de Goiás", "UF": "Goiás", "latitude": -15.3184, "longitude": -50.0553}, {"nome": "Santa Tereza de Goiás", "UF": "Goiás", "latitude": -13.7138, "longitude": -49.0144}, {"nome": "Goianésia", "UF": "Goiás", "latitude": -15.3118, "longitude": -49.1162}, {"nome": "Buriti de Goiás", "UF": "Goiás", "latitude": -16.1792, "longitude": -50.4302}, {"nome": "Campos Verdes", "UF": "Goiás", "latitude": -14.2442, "longitude": -49.6528}, {"nome": "Montividiu do Norte", "UF": "Goiás", "latitude": -13.3485, "longitude": -48.6853}, {"nome": "Teresina de Goiás", "UF": "Goiás", "latitude": -13.7801, "longitude": -47.2659}, {"nome": "Moiporá", "UF": "Goiás", "latitude": -16.5434, "longitude": -50.739}, {"nome": "Jaupaci", "UF": "Goiás", "latitude": -16.1773, "longitude": -50.9508}, {"nome": "Mambaí", "UF": "Goiás", "latitude": -14.4823, "longitude": -46.1165}, {"nome": "Goianápolis", "UF": "Goiás", "latitude": -16.5098, "longitude": -49.0234}, {"nome": "Buriti Alegre", "UF": "Goiás", "latitude": -18.1378, "longitude": -49.0404}, {"nome": "Campos Belos", "UF": "Goiás", "latitude": -13.035, "longitude": -46.7681}, {"nome": "Britânia", "UF": "Goiás", "latitude": -15.2428, "longitude": -51.1602}, {"nome": "Jataí", "UF": "Goiás", "latitude": -17.8784, "longitude": -51.7204}, {"nome": "Avelinópolis", "UF": "Goiás", "latitude": -16.4672, "longitude": -49.7579}, {"nome": "Araguapaz", "UF": "Goiás", "latitude": -15.0909, "longitude": -50.6315}, {"nome": "Santa Terezinha de Goiás", "UF": "Goiás", "latitude": -14.4326, "longitude": -49.7091}, {"nome": "Araçu", "UF": "Goiás", "latitude": -16.3563, "longitude": -49.6804}, {"nome": "Caçu", "UF": "Goiás", "latitude": -18.5594, "longitude": -51.1328}, {"nome": "Corumbá de Goiás", "UF": "Goiás", "latitude": -15.9245, "longitude": -48.8117}, {"nome": "Padre Bernardo", "UF": "Goiás", "latitude": -15.1605, "longitude": -48.2833}, {"nome": "Sítio d'Abadia", "UF": "Goiás", "latitude": -14.7992, "longitude": -46.2506}, {"nome": "Baliza", "UF": "Goiás", "latitude": -16.1966, "longitude": -52.5393}, {"nome": "Nova Glória", "UF": "Goiás", "latitude": -15.145, "longitude": -49.5737}, {"nome": "Edéia", "UF": "Goiás", "latitude": -17.3406, "longitude": -49.9295}, {"nome": "Santa Rosa de Goiás", "UF": "Goiás", "latitude": -16.084, "longitude": -49.4953}, {"nome": "Cachoeira Alta", "UF": "Goiás", "latitude": -18.7618, "longitude": -50.9432}, {"nome": "Formoso", "UF": "Goiás", "latitude": -13.6499, "longitude": -48.8775}, {"nome": "Cachoeira de Goiás", "UF": "Goiás", "latitude": -16.6635, "longitude": -50.646}, {"nome": "Perolândia", "UF": "Goiás", "latitude": -17.5258, "longitude": -52.065}, {"nome": "Córrego do Ouro", "UF": "Goiás", "latitude": -16.2918, "longitude": -50.5503}, {"nome": "Santa Fé de Goiás", "UF": "Goiás", "latitude": -15.7664, "longitude": -51.1037}, {"nome": "Caldazinha", "UF": "Goiás", "latitude": -16.7117, "longitude": -49.0013}, {"nome": "Caldas Novas", "UF": "Goiás", "latitude": -17.7441, "longitude": -48.6246}, {"nome": "Crixás", "UF": "Goiás", "latitude": -14.5412, "longitude": -49.974}, {"nome": "Uirapuru", "UF": "Goiás", "latitude": -14.2835, "longitude": -49.9201}, {"nome": "Cachoeira Dourada", "UF": "Goiás", "latitude": -18.4859, "longitude": -49.4766}, {"nome": "Jussara", "UF": "Goiás", "latitude": -15.8659, "longitude": -50.8668}, {"nome": "Trombas", "UF": "Goiás", "latitude": -13.5079, "longitude": -48.7417}, {"nome": "Edealina", "UF": "Goiás", "latitude": -17.4239, "longitude": -49.6644}, {"nome": "Santa Rita do Araguaia", "UF": "Goiás", "latitude": -17.3269, "longitude": -53.2012}, {"nome": "Campo Alegre de Goiás", "UF": "Goiás", "latitude": -17.6363, "longitude": -47.7768}, {"nome": "Água Limpa", "UF": "Goiás", "latitude": -18.0771, "longitude": -48.7603}, {"nome": "Corumbaíba", "UF": "Goiás", "latitude": -18.1415, "longitude": -48.5626}, {"nome": "Leopoldo de Bulhões", "UF": "Goiás", "latitude": -16.619, "longitude": -48.7428}, {"nome": "Mineiros", "UF": "Goiás", "latitude": -17.5654, "longitude": -52.5537}, {"nome": "São Domingos", "UF": "Goiás", "latitude": -13.621, "longitude": -46.7415}, {"nome": "Nova Crixás", "UF": "Goiás", "latitude": -14.0957, "longitude": -50.33}, {"nome": "Cabeceiras", "UF": "Goiás", "latitude": -15.7995, "longitude": -46.9265}, {"nome": "Alto Paraíso de Goiás", "UF": "Goiás", "latitude": -14.1305, "longitude": -47.51}, {"nome": "Novo Brasil", "UF": "Goiás", "latitude": -16.0313, "longitude": -50.7113}, {"nome": "Divinópolis de Goiás", "UF": "Goiás", "latitude": -13.2853, "longitude": -46.3999}, {"nome": "Serranópolis", "UF": "Goiás", "latitude": -18.3067, "longitude": -51.9586}, {"nome": "Mundo Novo", "UF": "Goiás", "latitude": -13.7729, "longitude": -50.2814}, {"nome": "Aloândia", "UF": "Goiás", "latitude": -17.7292, "longitude": -49.4769}, {"nome": "Santo Antônio de Goiás", "UF": "Goiás", "latitude": -16.4815, "longitude": -49.3096}, {"nome": "Brazabrantes", "UF": "Goiás", "latitude": -16.4281, "longitude": -49.3863}, {"nome": "Gouvelândia", "UF": "Goiás", "latitude": -18.6238, "longitude": -50.0805}, {"nome": "Cristianópolis", "UF": "Goiás", "latitude": -17.1987, "longitude": -48.7034}, {"nome": "Acreúna", "UF": "Goiás", "latitude": -17.396, "longitude": -50.3749}, {"nome": "Amorinópolis", "UF": "Goiás", "latitude": -16.6151, "longitude": -51.0919}, {"nome": "Bom Jardim de Goiás", "UF": "Goiás", "latitude": -16.2063, "longitude": -52.1728}, {"nome": "Piranhas", "UF": "Goiás", "latitude": -16.4258, "longitude": -51.8235}, {"nome": "Maurilândia", "UF": "Goiás", "latitude": -17.9719, "longitude": -50.3388}, {"nome": "Adelândia", "UF": "Goiás", "latitude": -16.4127, "longitude": -50.1657}, {"nome": "Mara Rosa", "UF": "Goiás", "latitude": -14.0148, "longitude": -49.1777}, {"nome": "Pirenópolis", "UF": "Goiás", "latitude": -15.8507, "longitude": -48.9584}, {"nome": "Aparecida de Goiânia", "UF": "Goiás", "latitude": -16.8198, "longitude": -49.2469}, {"nome": "Nova Veneza", "UF": "Goiás", "latitude": -16.3695, "longitude": -49.3168}, {"nome": "Cocalzinho de Goiás", "UF": "Goiás", "latitude": -15.7914, "longitude": -48.7747}, {"nome": "Portelândia", "UF": "Goiás", "latitude": -17.3554, "longitude": -52.6799}, {"nome": "Palmelo", "UF": "Goiás", "latitude": -17.3258, "longitude": -48.426}, {"nome": "Israelândia", "UF": "Goiás", "latitude": -16.3144, "longitude": -50.9087}, {"nome": "Itaberaí", "UF": "Goiás", "latitude": -16.0206, "longitude": -49.806}, {"nome": "São Luiz do Norte", "UF": "Goiás", "latitude": -14.8608, "longitude": -49.3285}, {"nome": "Americano do Brasil", "UF": "Goiás", "latitude": -16.2514, "longitude": -49.9831}, {"nome": "Cidade Ocidental", "UF": "Goiás", "latitude": -16.0765, "longitude": -47.9252}, {"nome": "Ivolândia", "UF": "Goiás", "latitude": -16.5995, "longitude": -50.7921}, {"nome": "Arenópolis", "UF": "Goiás", "latitude": -16.3837, "longitude": -51.5563}, {"nome": "Minaçu", "UF": "Goiás", "latitude": -13.5304, "longitude": -48.2206}, {"nome": "Novo Gama", "UF": "Goiás", "latitude": -16.0592, "longitude": -48.0417}, {"nome": "Valparaíso de Goiás", "UF": "Goiás", "latitude": -16.0651, "longitude": -47.9757}, {"nome": "Santo Antônio da Barra", "UF": "Goiás", "latitude": -17.5585, "longitude": -50.6345}, {"nome": "Anhanguera", "UF": "Goiás", "latitude": -18.3339, "longitude": -48.2204}, {"nome": "Carmo do Rio Verde", "UF": "Goiás", "latitude": -15.3549, "longitude": -49.708}, {"nome": "Diorama", "UF": "Goiás", "latitude": -16.2329, "longitude": -51.2543}, {"nome": "Itauçu", "UF": "Goiás", "latitude": -16.2029, "longitude": -49.6109}, {"nome": "Firminópolis", "UF": "Goiás", "latitude": -16.5778, "longitude": -50.304}, {"nome": "Itumbiara", "UF": "Goiás", "latitude": -18.4093, "longitude": -49.2158}, {"nome": "Taquaral de Goiás", "UF": "Goiás", "latitude": -16.0521, "longitude": -49.6039}, {"nome": "Abadia de Goiás", "UF": "Goiás", "latitude": -16.7573, "longitude": -49.4412}, {"nome": "Anicuns", "UF": "Goiás", "latitude": -16.4642, "longitude": -49.9617}, {"nome": "Jandaia", "UF": "Goiás", "latitude": -17.0481, "longitude": -50.1453}, {"nome": "Estrela do Norte", "UF": "Goiás", "latitude": -13.8665, "longitude": -49.0716}, {"nome": "Bom Jesus de Goiás", "UF": "Goiás", "latitude": -18.2173, "longitude": -49.74}, {"nome": "Goiás", "UF": "Goiás", "latitude": -15.9333, "longitude": -50.14}, {"nome": "Mozarlândia", "UF": "Goiás", "latitude": -14.7457, "longitude": -50.5713}, {"nome": "Santa Bárbara de Goiás", "UF": "Goiás", "latitude": -16.5714, "longitude": -49.6954}, {"nome": "Rio Verde", "UF": "Goiás", "latitude": -17.7923, "longitude": -50.9192}, {"nome": "Mossâmedes", "UF": "Goiás", "latitude": -16.124, "longitude": -50.2136}, {"nome": "Goianira", "UF": "Goiás", "latitude": -16.4947, "longitude": -49.427}, {"nome": "Aurilândia", "UF": "Goiás", "latitude": -16.6773, "longitude": -50.4641}, {"nome": "Rio Quente", "UF": "Goiás", "latitude": -17.774, "longitude": -48.7725}, {"nome": "Palestina de Goiás", "UF": "Goiás", "latitude": -16.7392, "longitude": -51.5309}, {"nome": "Goiânia", "UF": "Goiás", "latitude": -16.6864, "longitude": -49.2643}, {"nome": "Jaraguá", "UF": "Goiás", "latitude": -15.7529, "longitude": -49.3344}, {"nome": "Pontalina", "UF": "Goiás", "latitude": -17.5225, "longitude": -49.4489}, {"nome": "Goiatuba", "UF": "Goiás", "latitude": -18.0105, "longitude": -49.3658}, {"nome": "Abadiânia", "UF": "Goiás", "latitude": -16.197, "longitude": -48.7057}, {"nome": "Vila Propício", "UF": "Goiás", "latitude": -15.4542, "longitude": -48.8819}, {"nome": "São João d'Aliança", "UF": "Goiás", "latitude": -14.7048, "longitude": -47.5228}, {"nome": "Guarani de Goiás", "UF": "Goiás", "latitude": -13.9421, "longitude": -46.4868}, {"nome": "Nazário", "UF": "Goiás", "latitude": -16.5808, "longitude": -49.8817}, {"nome": "Davinópolis", "UF": "Goiás", "latitude": -18.1501, "longitude": -47.5568}, {"nome": "Santa Cruz de Goiás", "UF": "Goiás", "latitude": -17.3155, "longitude": -48.4809}, {"nome": "Silvânia", "UF": "Goiás", "latitude": -16.66, "longitude": -48.6083}, {"nome": "Turvelândia", "UF": "Goiás", "latitude": -17.8502, "longitude": -50.3024}, {"nome": "Catalão", "UF": "Goiás", "latitude": -18.1656, "longitude": -47.944}, {"nome": "Varjão", "UF": "Goiás", "latitude": -17.0471, "longitude": -49.6312}, {"nome": "Vila Boa", "UF": "Goiás", "latitude": -15.0387, "longitude": -47.052}, {"nome": "Flores de Goiás", "UF": "Goiás", "latitude": -14.4451, "longitude": -47.0417}, {"nome": "Castelândia", "UF": "Goiás", "latitude": -18.0921, "longitude": -50.203}, {"nome": "Itapirapuã", "UF": "Goiás", "latitude": -15.8205, "longitude": -50.6094}, {"nome": "Vicentinópolis", "UF": "Goiás", "latitude": -17.7322, "longitude": -49.8047}, {"nome": "Planaltina", "UF": "Goiás", "latitude": -15.452, "longitude": -47.6089}, {"nome": "Turvânia", "UF": "Goiás", "latitude": -16.6125, "longitude": -50.1369}, {"nome": "Sanclerlândia", "UF": "Goiás", "latitude": -16.197, "longitude": -50.3124}, {"nome": "Itapuranga", "UF": "Goiás", "latitude": -15.5606, "longitude": -49.949}, {"nome": "Aruanã", "UF": "Goiás", "latitude": -14.9166, "longitude": -51.075}, {"nome": "Pires do Rio", "UF": "Goiás", "latitude": -17.3019, "longitude": -48.2768}, {"nome": "São João da Paraúna", "UF": "Goiás", "latitude": -16.8126, "longitude": -50.4092}, {"nome": "Itarumã", "UF": "Goiás", "latitude": -18.7646, "longitude": -51.3485}, {"nome": "Aparecida do Rio Doce", "UF": "Goiás", "latitude": -18.2941, "longitude": -51.1516}, {"nome": "Mutunópolis", "UF": "Goiás", "latitude": -13.7303, "longitude": -49.2745}, {"nome": "Caturaí", "UF": "Goiás", "latitude": -16.4447, "longitude": -49.4936}, {"nome": "Cezarina", "UF": "Goiás", "latitude": -16.9718, "longitude": -49.7758}, {"nome": "Itajá", "UF": "Goiás", "latitude": -19.0673, "longitude": -51.5495}, {"nome": "Guaraíta", "UF": "Goiás", "latitude": -15.6121, "longitude": -50.0265}, {"nome": "Matrinchã", "UF": "Goiás", "latitude": -15.4342, "longitude": -50.7456}, {"nome": "Faina", "UF": "Goiás", "latitude": -15.4473, "longitude": -50.3622}, {"nome": "Porteirão", "UF": "Goiás", "latitude": -17.8143, "longitude": -50.1653}, {"nome": "Cavalcante", "UF": "Goiás", "latitude": -13.7976, "longitude": -47.4566}, {"nome": "Colinas do Sul", "UF": "Goiás", "latitude": -14.1528, "longitude": -48.076}, {"nome": "Santa Helena de Goiás", "UF": "Goiás", "latitude": -17.8115, "longitude": -50.5977}, {"nome": "São Miguel do Passa Quatro", "UF": "Goiás", "latitude": -17.0582, "longitude": -48.662}, {"nome": "Cromínia", "UF": "Goiás", "latitude": -17.2883, "longitude": -49.3798}, {"nome": "Itaguari", "UF": "Goiás", "latitude": -15.918, "longitude": -49.6071}, {"nome": "Itaguaru", "UF": "Goiás", "latitude": -15.7565, "longitude": -49.6354}, {"nome": "Nerópolis", "UF": "Goiás", "latitude": -16.4047, "longitude": -49.2227}, {"nome": "Palmeiras de Goiás", "UF": "Goiás", "latitude": -16.8044, "longitude": -49.924}, {"nome": "Niquelândia", "UF": "Goiás", "latitude": -14.4662, "longitude": -48.4599}, {"nome": "Palminópolis", "UF": "Goiás", "latitude": -16.7924, "longitude": -50.1652}, {"nome": "Inaciolândia", "UF": "Goiás", "latitude": -18.4869, "longitude": -49.9888}, {"nome": "Inhumas", "UF": "Goiás", "latitude": -16.3611, "longitude": -49.5001}, {"nome": "Panamá", "UF": "Goiás", "latitude": -18.1783, "longitude": -49.355}, {"nome": "Heitoraí", "UF": "Goiás", "latitude": -15.719, "longitude": -49.8268}, {"nome": "Ipameri", "UF": "Goiás", "latitude": -17.7215, "longitude": -48.1581}, {"nome": "Chapadão do Céu", "UF": "Goiás", "latitude": -18.4073, "longitude": -52.549}, {"nome": "Nova Aurora", "UF": "Goiás", "latitude": -18.0597, "longitude": -48.2552}, {"nome": "Nova América", "UF": "Goiás", "latitude": -15.0206, "longitude": -49.8953}, {"nome": "Cumari", "UF": "Goiás", "latitude": -18.2644, "longitude": -48.1511}, {"nome": "Guarinos", "UF": "Goiás", "latitude": -14.7292, "longitude": -49.7006}, {"nome": "Marzagão", "UF": "Goiás", "latitude": -17.983, "longitude": -48.6415}, {"nome": "Hidrolina", "UF": "Goiás", "latitude": -14.7261, "longitude": -49.4634}, {"nome": "Alvorada do Norte", "UF": "Goiás", "latitude": -14.4797, "longitude": -46.491}, {"nome": "Hidrolândia", "UF": "Goiás", "latitude": -16.9626, "longitude": -49.2265}, {"nome": "Santa Isabel", "UF": "Goiás", "latitude": -15.2958, "longitude": -49.4259}, {"nome": "Paraúna", "UF": "Goiás", "latitude": -16.9463, "longitude": -50.4484}, {"nome": "Amaralina", "UF": "Goiás", "latitude": -13.9236, "longitude": -49.2962}, {"nome": "São Miguel do Araguaia", "UF": "Goiás", "latitude": -13.2731, "longitude": -50.1634}, {"nome": "Iporá", "UF": "Goiás", "latitude": -16.4398, "longitude": -51.118}, {"nome": "Ipiranga de Goiás", "UF": "Goiás", "latitude": -15.1689, "longitude": -49.6695}, {"nome": "Bom Jardim", "UF": "Maranhão", "latitude": -3.54129, "longitude": -45.606}, {"nome": "Santa Quitéria do Maranhão", "UF": "Maranhão", "latitude": -3.49308, "longitude": -42.5688}, {"nome": "Araioses", "UF": "Maranhão", "latitude": -2.89091, "longitude": -41.905}, {"nome": "Jatobá", "UF": "Maranhão", "latitude": -5.82282, "longitude": -44.2153}, {"nome": "Gonçalves Dias", "UF": "Maranhão", "latitude": -5.1475, "longitude": -44.3013}, {"nome": "Pedro do Rosário", "UF": "Maranhão", "latitude": -2.97272, "longitude": -45.3493}, {"nome": "Godofredo Viana", "UF": "Maranhão", "latitude": -1.40259, "longitude": -45.7795}, {"nome": "Bacabeira", "UF": "Maranhão", "latitude": -2.96452, "longitude": -44.3164}, {"nome": "São Raimundo do Doca Bezerra", "UF": "Maranhão", "latitude": -5.11053, "longitude": -45.0696}, {"nome": "Pirapemas", "UF": "Maranhão", "latitude": -3.72041, "longitude": -44.2216}, {"nome": "Jenipapo dos Vieiras", "UF": "Maranhão", "latitude": -5.36237, "longitude": -45.6356}, {"nome": "Montes Altos", "UF": "Maranhão", "latitude": -5.83067, "longitude": -47.0673}, {"nome": "Tasso Fragoso", "UF": "Maranhão", "latitude": -8.4662, "longitude": -45.7536}, {"nome": "Capinzal do Norte", "UF": "Maranhão", "latitude": -4.7236, "longitude": -44.328}, {"nome": "São Vicente Ferrer", "UF": "Maranhão", "latitude": -2.89487, "longitude": -44.8681}, {"nome": "Lagoa do Mato", "UF": "Maranhão", "latitude": -6.05023, "longitude": -43.5333}, {"nome": "Porto Franco", "UF": "Maranhão", "latitude": -6.34149, "longitude": -47.3962}, {"nome": "Altamira do Maranhão", "UF": "Maranhão", "latitude": -4.16598, "longitude": -45.4706}, {"nome": "Junco do Maranhão", "UF": "Maranhão", "latitude": -1.83888, "longitude": -46.09}, {"nome": "Vargem Grande", "UF": "Maranhão", "latitude": -3.53639, "longitude": -43.917}, {"nome": "Timon", "UF": "Maranhão", "latitude": -5.09769, "longitude": -42.8329}, {"nome": "Açailândia", "UF": "Maranhão", "latitude": -4.94714, "longitude": -47.5004}, {"nome": "Presidente Médici", "UF": "Maranhão", "latitude": -2.38991, "longitude": -45.82}, {"nome": "Afonso Cunha", "UF": "Maranhão", "latitude": -4.13631, "longitude": -43.3275}, {"nome": "Bom Jesus das Selvas", "UF": "Maranhão", "latitude": -4.47638, "longitude": -46.8641}, {"nome": "São Francisco do Brejão", "UF": "Maranhão", "latitude": -5.12584, "longitude": -47.389}, {"nome": "Cantanhede", "UF": "Maranhão", "latitude": -3.63757, "longitude": -44.383}, {"nome": "Santa Luzia do Paruá", "UF": "Maranhão", "latitude": -2.51123, "longitude": -45.7801}, {"nome": "Governador Newton Bello", "UF": "Maranhão", "latitude": -3.43245, "longitude": -45.6619}, {"nome": "Governador Nunes Freire", "UF": "Maranhão", "latitude": -2.12899, "longitude": -45.8777}, {"nome": "São José dos Basílios", "UF": "Maranhão", "latitude": -5.05493, "longitude": -44.5809}, {"nome": "São João Batista", "UF": "Maranhão", "latitude": -2.95398, "longitude": -44.7953}, {"nome": "Ribamar Fiquene", "UF": "Maranhão", "latitude": -5.93067, "longitude": -47.3888}, {"nome": "Maranhãozinho", "UF": "Maranhão", "latitude": -2.24078, "longitude": -45.8507}, {"nome": "Milagres do Maranhão", "UF": "Maranhão", "latitude": -3.57443, "longitude": -42.6131}, {"nome": "Araguanã", "UF": "Maranhão", "latitude": -2.94644, "longitude": -45.6589}, {"nome": "Senador Alexandre Costa", "UF": "Maranhão", "latitude": -5.25096, "longitude": -44.0533}, {"nome": "Marajá do Sena", "UF": "Maranhão", "latitude": -4.62806, "longitude": -45.4531}, {"nome": "Bom Lugar", "UF": "Maranhão", "latitude": -4.37311, "longitude": -45.0326},